full_address,latitude,longitude
"SERANGOON, SERANGOON NTH AVE 2, block 139, Singapore",1.3646649,103.8722762
"WOODLANDS, MARSILING LANE, block 215, Singapore",1.4476136,103.7720555
"PASIR RIS, PASIR RIS DR 3, block 631, Singapore",1.3789831,103.9401988
"SENGKANG, RIVERVALE DR, block 187A, Singapore",1.393737,103.905399
"PUNGGOL, PUNGGOL DR, block 664B, Singapore",1.4000792,103.9178359
"YISHUN, YISHUN RING RD, block 363, Singapore",1.4289271,103.845575
"GEYLANG, CIRCUIT RD, block 83B, Singapore",1.3236208,103.8896242
"TAMPINES, TAMPINES ST 21, block 269, Singapore",1.3506959,103.9481555
"YISHUN, YISHUN ST 21, block 229, Singapore",1.4349157,103.8371676
"WOODLANDS, WOODLANDS DR 16, block 540, Singapore",1.428469,103.7926025
"HOUGANG, BUANGKOK CRES, block 981B, Singapore",1.3804881,103.8801181
"BUKIT MERAH, TELOK BLANGAH CRES, block 14, Singapore",1.2775268,103.8203606
"TAMPINES, TAMPINES ST 71, block 713, Singapore",1.3594085,103.9376985
"BUKIT PANJANG, SENJA RD, block 602, Singapore",1.3814435,103.7627315
"GEYLANG, CIRCUIT RD, block 37, Singapore",1.3280546,103.8867459
"SERANGOON, SERANGOON AVE 3, block 334, Singapore",1.350122,103.8707895
"BUKIT BATOK, BT BATOK EAST AVE 6, block 292C, Singapore",1.3448798,103.7534425
"WOODLANDS, WOODLANDS DR 50, block 891B, Singapore",1.4378806,103.7905649
"ANG MO KIO, ANG MO KIO AVE 10, block 553, Singapore",1.3725587,103.8572434
"PASIR RIS, PASIR RIS DR 1, block 637, Singapore",1.3767685,103.9403428
"WOODLANDS, WOODLANDS DR 50, block 897B, Singapore",1.4361204,103.793825
"YISHUN, YISHUN AVE 3, block 770, Singapore",1.4244403,103.832508
"TAMPINES, SIMEI ST 1, block 127, Singapore",1.3466001,103.9543044
"BUKIT BATOK, BT BATOK WEST AVE 8, block 165, Singapore",1.3473782,103.7420015
"WOODLANDS, WOODLANDS RING RD, block 644, Singapore",1.4370007,103.8016456
"JURONG WEST, BOON LAY DR, block 180B, Singapore",1.3479769,103.7091426
"SENGKANG, RIVERVALE CRES, block 163C, Singapore",1.3895594,103.9082027
"WOODLANDS, WOODLANDS DR 60, block 786D, Singapore",1.446617,103.8009903
"SEMBAWANG, MONTREAL LINK, block 590B, Singapore",1.4501003,103.8270738
"PUNGGOL, EDGEFIELD PLAINS, block 615C, Singapore",1.4035035,103.9103192
"WOODLANDS, WOODLANDS DR 73, block 686B, Singapore",1.4426632,103.8067441
"BEDOK, BEDOK STH RD, block 38, Singapore",1.3208629,103.9387452
"TAMPINES, TAMPINES AVE 4, block 807, Singapore",1.3458829,103.9361065
"WOODLANDS, WOODLANDS DR 62, block 681A, Singapore",1.4381922,103.7889597
"YISHUN, YISHUN AVE 3, block 774, Singapore",1.4235547,103.831938
"PUNGGOL, PUNGGOL FIELD, block 269A, Singapore",1.4030497,103.8991474
"CHOA CHU KANG, CHOA CHU KANG CRES, block 671, Singapore",1.4025549,103.7479578
"JURONG WEST, JURONG WEST ST 65, block 673C, Singapore",1.344754,103.7013019
"BUKIT MERAH, LENGKOK BAHRU, block 51, Singapore",1.2879106,103.8128955
"TAMPINES, TAMPINES ST 32, block 385, Singapore",1.3549569,103.9584293
"WOODLANDS, WOODLANDS DR 14, block 535, Singapore",1.4311751,103.792059
"WOODLANDS, WOODLANDS AVE 1, block 570C, Singapore",1.4314397,103.7900166
"SENGKANG, RIVERVALE DR, block 117C, Singapore",1.383378,103.903215
"PASIR RIS, PASIR RIS ST 21, block 207, Singapore",1.3662104,103.9620104
"BISHAN, BISHAN ST 13, block 156, Singapore",1.3455446,103.8566537
"PASIR RIS, PASIR RIS ST 71, block 772, Singapore",1.3753309,103.9368543
"PASIR RIS, PASIR RIS DR 1, block 530C, Singapore",1.3716826,103.9501178
"CENTRAL AREA, JLN KUKOH, block 8, Singapore",1.2873882,103.8394154
"ANG MO KIO, ANG MO KIO AVE 10, block 418, Singapore",1.3650267,103.854012
"BUKIT BATOK, BT BATOK ST 11, block 140, Singapore",1.3508437,103.7437142
"SENGKANG, ANCHORVALE LINK, block 318B, Singapore",1.3940807,103.8887884
"PASIR RIS, PASIR RIS ST 52, block 501, Singapore",1.3762288,103.9459643
"SENGKANG, ANCHORVALE LINK, block 302B, Singapore",1.3880653,103.8905354
"YISHUN, YISHUN AVE 9, block 318A, Singapore",1.4341054,103.8436132
"BUKIT MERAH, HAVELOCK RD, block 57, Singapore",1.2901599,103.8285502
"BEDOK, BEDOK STH AVE 1, block 1, Singapore",1.3208678,103.9337086
"HOUGANG, LOR AH SOO, block 130, Singapore",1.3512905,103.8864933
"SENGKANG, ANCHORVALE LINK, block 305B, Singapore",1.389262,103.8885293
"PUNGGOL, PUNGGOL PL, block 306C, Singapore",1.4064212,103.9060163
"CENTRAL AREA, UPP CROSS ST, block 34, Singapore",1.2861551,103.8422545
"ANG MO KIO, ANG MO KIO ST 52, block 588D, Singapore",1.3718012,103.8539574
"SENGKANG, COMPASSVALE RD, block 258C, Singapore",1.3934411,103.8974722
"BUKIT BATOK, BT BATOK ST 51, block 528, Singapore",1.35669,103.7512615
"SENGKANG, ANCHORVALE ST, block 330A, Singapore",1.3966169,103.8899436
"PUNGGOL, PUNGGOL PL, block 208B, Singapore",1.401445,103.9011576
"KALLANG/WHAMPOA, LOR LIMAU, block 76, Singapore",1.325219,103.8543559
"BEDOK, BEDOK NTH RD, block 185, Singapore",1.3261717,103.94082
"HOUGANG, HOUGANG AVE 8, block 613, Singapore",1.3696351,103.8847027
"BUKIT PANJANG, SENJA LINK, block 653, Singapore",1.3869705,103.7639323
"JURONG WEST, JURONG WEST CTRL 1, block 694, Singapore",1.3433361,103.7069553
"GEYLANG, PAYA LEBAR WAY, block 91, Singapore",1.3227005,103.8866982
"BUKIT PANJANG, BT PANJANG RING RD, block 609, Singapore",1.3827897,103.7620826
"QUEENSTOWN, DAWSON RD, block 90, Singapore",1.2954689,103.8121066
"BUKIT BATOK, BT BATOK ST 34, block 351, Singapore",1.3618306,103.7494392
"PASIR RIS, PASIR RIS ST 51, block 551, Singapore",1.3675604,103.9530736
"SENGKANG, FERNVALE LINK, block 430C, Singapore",1.3951289,103.87812
"SENGKANG, RIVERVALE ST, block 141, Singapore",1.3896056,103.904138
"TAMPINES, TAMPINES ST 24, block 218, Singapore",1.3544243,103.952514
"HOUGANG, HOUGANG ST 91, block 970, Singapore",1.3786378,103.8804826
"BUKIT MERAH, JLN RUMAH TINGGI, block 39, Singapore",1.2887252,103.8100948
"KALLANG/WHAMPOA, GEYLANG BAHRU, block 57, Singapore",1.3234434,103.8690181
"BUKIT PANJANG, BT PANJANG RING RD, block 434, Singapore",1.3853751,103.7708477
"WOODLANDS, WOODLANDS CIRCLE, block 751, Singapore",1.4450299,103.7941629
"BEDOK, BEDOK NTH AVE 4, block 106, Singapore",1.3284309,103.9349087
"SENGKANG, COMPASSVALE LINK, block 269D, Singapore",1.3833818,103.8966781
"PUNGGOL, PUNGGOL CTRL, block 622C, Singapore",1.4007295,103.910797
"WOODLANDS, WOODLANDS ST 41, block 428, Singapore",1.4269765,103.7725981
"PUNGGOL, PUNGGOL DR, block 665C, Singapore",1.4015138,103.9144217
"BEDOK, BEDOK NTH ST 3, block 526, Singapore",1.3256355,103.9295201
"JURONG EAST, TEBAN GDNS RD, block 20, Singapore",1.3220276,103.7413652
"BISHAN, BISHAN ST 24, block 275A, Singapore",1.3566867,103.8435047
"PUNGGOL, PUNGGOL DR, block 619D, Singapore",1.4021459,103.9111893
"BUKIT MERAH, TELOK BLANGAH WAY, block 33, Singapore",1.2742136,103.822405
"BUKIT MERAH, KIM TIAN RD, block 127A, Singapore",1.2819789,103.8296665
"QUEENSTOWN, DAWSON RD, block 88, Singapore",1.2959431,103.8093608
"BUKIT PANJANG, SEGAR RD, block 548A, Singapore",1.3890004,103.7681433
"BISHAN, BISHAN ST 13, block 186, Singapore",1.3494126,103.8525434
"HOUGANG, HOUGANG ST 61, block 698A, Singapore",1.3753138,103.8873487
"YISHUN, YISHUN ST 11, block 155, Singapore",1.4319433,103.8342609
"BEDOK, BEDOK NTH ST 3, block 530, Singapore",1.3256355,103.9295201
"HOUGANG, HOUGANG ST 91, block 910, Singapore",1.378888,103.8828207
"JURONG WEST, JURONG WEST CTRL 1, block 683B, Singapore",1.3423272,103.7049902
"PASIR RIS, PASIR RIS DR 6, block 475, Singapore",1.3751425,103.9572993
"WOODLANDS, WOODLANDS ST 13, block 101, Singapore",1.4359346,103.781918
"HOUGANG, HOUGANG AVE 1, block 232, Singapore",1.3587044,103.8886968
"YISHUN, YISHUN ST 51, block 505D, Singapore",1.4187848,103.8440716
"SEMBAWANG, SEMBAWANG CRES, block 336, Singapore",1.4469198,103.8156181
"QUEENSTOWN, HOLLAND AVE, block 2, Singapore",1.3095268,103.7956732
"BEDOK, CHAI CHEE RD, block 61, Singapore",1.32509,103.9207491
"BUKIT PANJANG, FAJAR RD, block 443C, Singapore",1.3804253,103.7700111
"ANG MO KIO, ANG MO KIO AVE 4, block 171, Singapore",1.3747879,103.8356461
"TOA PAYOH, POTONG PASIR AVE 1, block 120, Singapore",1.3357596,103.8634995
"JURONG WEST, JURONG WEST ST 75, block 735, Singapore",1.3459965,103.7009082
"SENGKANG, COMPASSVALE CRES, block 293D, Singapore",1.3963226,103.8953091
"YISHUN, YISHUN CTRL, block 303, Singapore",1.4303668,103.8400579
"GEYLANG, EUNOS CRES, block 32, Singapore",1.3203353,103.9010982
"CHOA CHU KANG, CHOA CHU KANG ST 62, block 601, Singapore",1.3969291,103.7449361
"ANG MO KIO, ANG MO KIO AVE 4, block 610, Singapore",1.3798338,103.8393673
"SENGKANG, SENGKANG WEST WAY, block 448B, Singapore",1.393396,103.873174
"HOUGANG, UPP SERANGOON CRES, block 473D, Singapore",1.3766934,103.9017568
"BUKIT PANJANG, BT PANJANG RING RD, block 533, Singapore",1.3848825,103.7636642
"GEYLANG, CIRCUIT RD, block 41, Singapore",1.3271464,103.8861717
"HOUGANG, HOUGANG AVE 10, block 402, Singapore",1.3745264,103.8965915
"BEDOK, BEDOK RESERVOIR RD, block 710, Singapore",1.3356353,103.9237795
"TAMPINES, TAMPINES ST 21, block 266, Singapore",1.351959,103.9504051
"TAMPINES, TAMPINES ST 44, block 470, Singapore",1.3608544,103.9545991
"BEDOK, BEDOK RESERVOIR RD, block 103, Singapore",1.3287437,103.9093447
"BEDOK, BEDOK NTH AVE 1, block 424, Singapore",1.3284637,103.9350757
"JURONG WEST, HO CHING RD, block 119, Singapore",1.3350991,103.7244363
"PASIR RIS, PASIR RIS ST 53, block 571, Singapore",1.3731053,103.9456887
"TAMPINES, TAMPINES ST 71, block 711, Singapore",1.3585106,103.937144
"SEMBAWANG, SEMBAWANG CL, block 332, Singapore",1.4466333,103.8172067
"JURONG WEST, BOON LAY DR, block 197B, Singapore",1.3439279,103.7136055
"WOODLANDS, WOODLANDS RING RD, block 669, Singapore",1.4383288,103.7983975
"PUNGGOL, EDGEDALE PLAINS, block 683A, Singapore",1.4043624,103.915319
"PASIR RIS, PASIR RIS ST 12, block 195, Singapore",1.3660929,103.9602198
"WOODLANDS, WOODLANDS RISE, block 783C, Singapore",1.4465129,103.8037202
"CLEMENTI, CLEMENTI AVE 5, block 339, Singapore",1.3195385,103.7691523
"SERANGOON, SERANGOON CTRL, block 415, Singapore",1.3497557,103.874483
"SERANGOON, SERANGOON NTH AVE 4, block 527, Singapore",1.3646834,103.8722097
"BUKIT PANJANG, SEGAR RD, block 485, Singapore",1.38868,103.7713881
"BUKIT PANJANG, BT PANJANG RING RD, block 620, Singapore",1.385886,103.761712
"BUKIT BATOK, BT BATOK WEST AVE 5, block 395, Singapore",1.3663726,103.752176
"HOUGANG, HOUGANG CTRL, block 852, Singapore",1.3697042,103.8937609
"HOUGANG, BUANGKOK CRES, block 998B, Singapore",1.3842591,103.8803524
"SEMBAWANG, SEMBAWANG DR, block 471, Singapore",1.4518846,103.8156856
"GEYLANG, ALJUNIED CRES, block 105, Singapore",1.3195168,103.882771
"BUKIT MERAH, BOON TIONG RD, block 9A, Singapore",1.2869254,103.8285773
"WOODLANDS, WOODLANDS DR 70, block 717, Singapore",1.4409093,103.7995067
"SENGKANG, FERNVALE LINK, block 430A, Singapore",1.3935997,103.8784341
"BEDOK, BEDOK RESERVOIR RD, block 140, Singapore",1.3349599,103.9133172
"SENGKANG, FERNVALE LINK, block 415B, Singapore",1.3889672,103.8801681
"TAMPINES, TAMPINES AVE 4, block 810, Singapore",1.3464705,103.9366275
"SENGKANG, COMPASSVALE LANE, block 209A, Singapore",1.3837172,103.8983764
"BUKIT MERAH, BT PURMEI RD, block 110, Singapore",1.2738047,103.8270224
"PUNGGOL, PUNGGOL WALK, block 272D, Singapore",1.4027537,103.9005677
"SENGKANG, ANCHORVALE LINK, block 332B, Singapore",1.3954085,103.8913595
"YISHUN, YISHUN ST 51, block 513C, Singapore",1.4153257,103.8437578
"BUKIT MERAH, EVERTON PK, block 2, Singapore",1.2773698,103.8394239
"KALLANG/WHAMPOA, JLN TENTERAM, block 117B, Singapore",1.3282842,103.8606312
"BISHAN, BISHAN ST 23, block 213, Singapore",1.3572815,103.8481263
"SENGKANG, ANCHORVALE LINK, block 306A, Singapore",1.3903492,103.8890258
"YISHUN, YISHUN AVE 4, block 664, Singapore",1.4202366,103.8410543
"CHOA CHU KANG, CHOA CHU KANG AVE 1, block 808B, Singapore",1.3756237,103.7458054
"WOODLANDS, WOODLANDS DR 50, block 886A, Singapore",1.4383025,103.794548
"WOODLANDS, WOODLANDS DR 75, block 687C, Singapore",1.4418127,103.8065001
"BEDOK, BEDOK RESERVOIR RD, block 713, Singapore",1.3367953,103.9224347
"TAMPINES, TAMPINES ST 21, block 245, Singapore",1.3530645,103.9465558
"PUNGGOL, EDGEDALE PLAINS, block 138, Singapore",1.3933572,103.9097454
"TAMPINES, TAMPINES ST 45, block 494J, Singapore",1.363665,103.9549986
"HOUGANG, HOUGANG AVE 10, block 455, Singapore",1.3774604,103.8955548
"SENGKANG, RIVERVALE CRES, block 185A, Singapore",1.3932122,103.9072246
"QUEENSTOWN, GHIM MOH RD, block 5, Singapore",1.312624,103.7883466
"KALLANG/WHAMPOA, BENDEMEER RD, block 39A, Singapore",1.3202319,103.8663737
"JURONG WEST, KANG CHING RD, block 347, Singapore",1.340367,103.7200919
"BISHAN, BISHAN ST 23, block 206, Singapore",1.3557104,103.84788
"HOUGANG, LOR AH SOO, block 129, Singapore",1.351509,103.8877113
"BUKIT PANJANG, PETIR RD, block 213, Singapore",1.3741736,103.7755463
"PUNGGOL, EDGEFIELD PLAINS, block 114, Singapore",1.3961415,103.9074684
"CENTRAL AREA, CANTONMENT RD, block 1C, Singapore",1.2774501,103.8415656
"HOUGANG, HOUGANG ST 52, block 539, Singapore",1.3775314,103.8901558
"BUKIT BATOK, BT BATOK EAST AVE 5, block 238, Singapore",1.3499087,103.7547714
"QUEENSTOWN, HOLLAND AVE, block 9, Singapore",1.3075755,103.7950392
"ANG MO KIO, ANG MO KIO ST 52, block 588B, Singapore",1.3723279,103.8528624
"CHOA CHU KANG, CHOA CHU KANG AVE 1, block 808D, Singapore",1.3749062,103.7455947
"ANG MO KIO, ANG MO KIO AVE 3, block 128, Singapore",1.3707399,103.8436398
"PUNGGOL, PUNGGOL WAY, block 266A, Singapore",1.4059368,103.8979062
"CHOA CHU KANG, KEAT HONG CL, block 803D, Singapore",1.3730979,103.7442499
"PUNGGOL, PUNGGOL WALK, block 271A, Singapore",1.4036727,103.9004884
"TAMPINES, TAMPINES CTRL 7, block 524B, Singapore",1.3589636,103.938948
"TAMPINES, TAMPINES ST 43, block 493C, Singapore",1.3619094,103.9515341
"BUKIT PANJANG, SENJA RD, block 627, Singapore",1.3856534,103.759187
"HOUGANG, HOUGANG AVE 5, block 319, Singapore",1.3657728,103.8968222
"JURONG WEST, JURONG WEST ST 64, block 677C, Singapore",1.3452615,103.7047473
"CLEMENTI, CLEMENTI AVE 3, block 456, Singapore",1.3119692,103.7669877
"BEDOK, LENGKONG TIGA, block 111, Singapore",1.3241484,103.9109099
"WOODLANDS, WOODLANDS CIRCLE, block 727, Singapore",1.4437122,103.7997886
"SENGKANG, FERNVALE RD, block 435B, Singapore",1.393283,103.876665
"MARINE PARADE, MARINE TER, block 1, Singapore",1.3048365,103.918528
"TOA PAYOH, LOR 1 TOA PAYOH, block 173, Singapore",1.3300285,103.8425258
"TAMPINES, TAMPINES CTRL 7, block 515C, Singapore",1.3569428,103.9390423
"HOUGANG, HOUGANG AVE 1, block 115, Singapore",1.3527849,103.88785
"CLEMENTI, CLEMENTI AVE 5, block 345, Singapore",1.3176612,103.7692645
"CLEMENTI, CLEMENTI WEST ST 1, block 608, Singapore",1.3044802,103.7659885
"ANG MO KIO, ANG MO KIO AVE 5, block 180, Singapore",1.3767768,103.8390824
"HOUGANG, HOUGANG AVE 8, block 649, Singapore",1.3723818,103.8805319
"WOODLANDS, WOODLANDS DR 14, block 501, Singapore",1.432867,103.7920096
"ANG MO KIO, ANG MO KIO AVE 3, block 213, Singapore",1.3677946,103.8412524
"YISHUN, YISHUN AVE 2, block 784, Singapore",1.4217494,103.8334055
"BUKIT BATOK, BT BATOK WEST AVE 6, block 192, Singapore",1.345624,103.7447828
"YISHUN, YISHUN ST 22, block 266, Singapore",1.4369938,103.8387094
"HOUGANG, HOUGANG AVE 5, block 306, Singapore",1.3671963,103.8955047
"GEYLANG, CIRCUIT RD, block 44, Singapore",1.3266374,103.8862337
"BEDOK, BEDOK NTH RD, block 707, Singapore",1.3354278,103.9192035
"BUKIT BATOK, BT BATOK EAST AVE 6, block 292B, Singapore",1.3448349,103.7539276
"YISHUN, YISHUN ST 71, block 719, Singapore",1.4268713,103.8291409
"YISHUN, YISHUN AVE 11, block 424C, Singapore",1.4230829,103.8493514
"YISHUN, YISHUN AVE 1, block 432C, Singapore",1.4195152,103.8460275
"QUEENSTOWN, DAWSON RD, block 89, Singapore",1.2954401,103.8117924
"SERANGOON, SERANGOON CTRL, block 424, Singapore",1.3481577,103.8755982
"TAMPINES, TAMPINES ST 23, block 215, Singapore",1.3546581,103.9532166
"GEYLANG, EUNOS CRES, block 20, Singapore",1.324714,103.9031931
"WOODLANDS, WOODLANDS ST 13, block 105, Singapore",1.4368599,103.7815858
"CHOA CHU KANG, CHOA CHU KANG AVE 3, block 284, Singapore",1.3797981,103.7424026
"TOA PAYOH, LOR 5 TOA PAYOH, block 54, Singapore",1.3373801,103.8502901
"WOODLANDS, MARSILING DR, block 33, Singapore",1.4435705,103.7720809
"SENGKANG, ANCHORVALE CRES, block 334C, Singapore",1.397464,103.8898129
"CENTRAL AREA, CANTONMENT RD, block 1G, Singapore",1.2756629,103.8412706
"GEYLANG, CIRCUIT RD, block 66, Singapore",1.3265307,103.8876604
"JURONG WEST, JURONG WEST ST 73, block 749, Singapore",1.3481236,103.6979878
"CENTRAL AREA, CANTONMENT RD, block 1B, Singapore",1.2779525,103.8413917
"JURONG WEST, JURONG WEST ST 93, block 989B, Singapore",1.3358932,103.6948326
"JURONG EAST, JURONG EAST AVE 1, block 334, Singapore",1.3506817,103.731673
"PUNGGOL, PUNGGOL FIELD, block 175B, Singapore",1.3977114,103.9085142
"JURONG WEST, YUAN CHING RD, block 138D, Singapore",1.3284548,103.7233281
"WOODLANDS, MARSILING DR, block 11, Singapore",1.440383,103.7779913
"JURONG WEST, BOON LAY DR, block 181B, Singapore",1.3488528,103.7085238
"BEDOK, BEDOK NTH ST 4, block 89, Singapore",1.3257849,103.9294412
"ANG MO KIO, ANG MO KIO AVE 1, block 310A, Singapore",1.3650552,103.8438088
"HOUGANG, HOUGANG AVE 10, block 458, Singapore",1.3779087,103.8962916
"TAMPINES, TAMPINES ST 34, block 369, Singapore",1.3583332,103.9600385
"KALLANG/WHAMPOA, WHAMPOA DR, block 100, Singapore",1.3207842,103.854355
"HOUGANG, HOUGANG AVE 10, block 420, Singapore",1.3758553,103.8948698
"CLEMENTI, CLEMENTI WEST ST 1, block 607, Singapore",1.3042478,103.767773
"BUKIT PANJANG, SENJA LINK, block 650, Singapore",1.3870671,103.7632476
"BISHAN, BISHAN ST 13, block 170, Singapore",1.3464656,103.8535901
"ANG MO KIO, ANG MO KIO AVE 10, block 437, Singapore",1.3673629,103.8531402
"PUNGGOL, EDGEDALE PLAINS, block 130, Singapore",1.3933978,103.9096788
"PUNGGOL, PUNGGOL WAY, block 266D, Singapore",1.4050262,103.8980367
"BEDOK, BEDOK RESERVOIR RD, block 145, Singapore",1.3343624,103.9121
"PASIR RIS, PASIR RIS ST 11, block 184, Singapore",1.3643456,103.9613008
"YISHUN, YISHUN AVE 11, block 348A, Singapore",1.4273134,103.8414619
"BEDOK, BEDOK NTH AVE 1, block 423, Singapore",1.3284637,103.9350757
"SENGKANG, FERNVALE LANE, block 403B, Singapore",1.3886912,103.872987
"SEMBAWANG, ADMIRALTY DR, block 354D, Singapore",1.4509175,103.8187379
"JURONG WEST, JURONG WEST ST 42, block 559, Singapore",1.3544659,103.7186669
"SENGKANG, FERNVALE RD, block 410C, Singapore",1.3900559,103.8764023
"CHOA CHU KANG, TECK WHYE LANE, block 16, Singapore",1.3787335,103.7551205
"BUKIT BATOK, BT BATOK WEST AVE 8, block 443B, Singapore",1.3560855,103.7376586
"SENGKANG, COMPASSVALE CRES, block 293C, Singapore",1.3968247,103.8954154
"PUNGGOL, PUNGGOL DR, block 663C, Singapore",1.4004216,103.9175699
"SERANGOON, SERANGOON NTH AVE 4, block 521, Singapore",1.3646834,103.8722097
"JURONG WEST, BOON LAY PL, block 208, Singapore",1.3471712,103.7145796
"WOODLANDS, WOODLANDS RISE, block 784C, Singapore",1.4459019,103.8053023
"PUNGGOL, PUNGGOL DR, block 665B, Singapore",1.4018256,103.9141614
"CLEMENTI, CLEMENTI AVE 1, block 416, Singapore",1.3104932,103.7715149
"TOA PAYOH, LOR 6 TOA PAYOH, block 52, Singapore",1.3380164,103.8519996
"QUEENSTOWN, DOVER CRES, block 19, Singapore",1.3078215,103.7836392
"WOODLANDS, MARSILING DR, block 205, Singapore",1.4449885,103.7734622
"KALLANG/WHAMPOA, UPP BOON KENG RD, block 13, Singapore",1.3145976,103.8704858
"TAMPINES, TAMPINES ST 33, block 346, Singapore",1.3511261,103.9623945
"JURONG EAST, JURONG EAST ST 24, block 243, Singapore",1.3429127,103.7434727
"KALLANG/WHAMPOA, BOON KENG RD, block 8, Singapore",1.3164572,103.8616186
"KALLANG/WHAMPOA, UPP BOON KENG RD, block 11, Singapore",1.3142309,103.87094
"ANG MO KIO, ANG MO KIO AVE 4, block 607, Singapore",1.3803646,103.8387898
"TAMPINES, TAMPINES CTRL 7, block 523B, Singapore",1.3600162,103.9384406
"JURONG EAST, JURONG EAST AVE 1, block 340, Singapore",1.350317,103.7307732
"ANG MO KIO, ANG MO KIO AVE 4, block 629, Singapore",1.3801351,103.8404202
"HOUGANG, HOUGANG AVE 8, block 504, Singapore",1.3733992,103.8881483
"JURONG EAST, TEBAN GDNS RD, block 55, Singapore",1.3218541,103.7373988
"KALLANG/WHAMPOA, JLN BATU, block 10, Singapore",1.3020744,103.8828688
"BEDOK, BEDOK NTH RD, block 79, Singapore",1.327681,103.940765
"BUKIT BATOK, BT BATOK ST 24, block 291E, Singapore",1.343427,103.7547702
"PUNGGOL, PUNGGOL CTRL, block 301B, Singapore",1.4042905,103.9058929
"WOODLANDS, WOODLANDS CIRCLE, block 739, Singapore",1.4442397,103.7969989
"WOODLANDS, WOODLANDS ST 31, block 302, Singapore",1.4318415,103.7744066
"PASIR RIS, PASIR RIS ST 71, block 767, Singapore",1.3756855,103.9358781
"KALLANG/WHAMPOA, MCNAIR RD, block 108C, Singapore",1.3199364,103.8594664
"WOODLANDS, WOODLANDS ST 83, block 857, Singapore",1.440421,103.7939085
"QUEENSTOWN, HOLLAND DR, block 11, Singapore",1.309007,103.7940607
"BUKIT PANJANG, GANGSA RD, block 103, Singapore",1.3787363,103.7685302
"CHOA CHU KANG, CHOA CHU KANG AVE 7, block 810A, Singapore",1.3745825,103.7460991
"KALLANG/WHAMPOA, WHAMPOA WEST, block 34, Singapore",1.3203364,103.8627296
"BEDOK, CHAI CHEE RD, block 19, Singapore",1.3275221,103.9222387
"PUNGGOL, PUNGGOL WALK, block 271D, Singapore",1.4034933,103.9008293
"PUNGGOL, PUNGGOL RD, block 195D, Singapore",1.401519,103.9070434
"ANG MO KIO, ANG MO KIO AVE 6, block 720, Singapore",1.3718126,103.8469791
"BUKIT BATOK, BT BATOK WEST AVE 7, block 406, Singapore",1.3651962,103.745901
"BUKIT PANJANG, LOMPANG RD, block 176, Singapore",1.3792794,103.7658726
"JURONG WEST, YUNG KUANG RD, block 166B, Singapore",1.3312594,103.722367
"PUNGGOL, PUNGGOL WALK, block 211B, Singapore",1.40128,103.899656
"BUKIT PANJANG, SAUJANA RD, block 416, Singapore",1.3832393,103.7684393
"PASIR RIS, PASIR RIS DR 6, block 476, Singapore",1.3752438,103.9582605
"TOA PAYOH, TOA PAYOH NTH, block 200, Singapore",1.3413981,103.8511091
"WOODLANDS, WOODLANDS DR 44, block 549, Singapore",1.4320412,103.7944456
"SENGKANG, SENGKANG EAST WAY, block 325C, Singapore",1.3932952,103.8912948
"CENTRAL AREA, JLN KUKOH, block 9, Singapore",1.2876433,103.8386354
"TAMPINES, TAMPINES ST 81, block 895, Singapore",1.3479204,103.9313535
"HOUGANG, HOUGANG CTRL, block 851, Singapore",1.3701289,103.8937042
"TOA PAYOH, LOR 1 TOA PAYOH, block 158, Singapore",1.3315331,103.8450059
"BEDOK, BEDOK RESERVOIR CRES, block 748A, Singapore",1.336359,103.9211067
"SENGKANG, FERNVALE RD, block 445A, Singapore",1.392091,103.87442
"SENGKANG, COMPASSVALE LINK, block 275D, Singapore",1.3827822,103.8940567
"PASIR RIS, PASIR RIS DR 6, block 416, Singapore",1.3716721,103.9556025
"TOA PAYOH, LOR 1A TOA PAYOH, block 138B, Singapore",1.3363635,103.8456043
"TAMPINES, TAMPINES ST 84, block 883, Singapore",1.351834,103.9329156
"JURONG WEST, JURONG WEST ST 61, block 624, Singapore",1.3409511,103.6976339
"WOODLANDS, WOODLANDS CIRCLE, block 765, Singapore",1.4458814,103.796816
"CHOA CHU KANG, CHOA CHU KANG AVE 3, block 281, Singapore",1.3805676,103.7424479
"QUEENSTOWN, STRATHMORE AVE, block 49, Singapore",1.2941213,103.8083374
"CHOA CHU KANG, CHOA CHU KANG DR, block 688A, Singapore",1.4038586,103.7506084
"PUNGGOL, PUNGGOL FIELD, block 173D, Singapore",1.3958472,103.9108489
"TOA PAYOH, LOR 2 TOA PAYOH, block 145, Singapore",1.3352206,103.8461698
"SENGKANG, ANCHORVALE RD, block 326B, Singapore",1.3953377,103.8880254
"ANG MO KIO, ANG MO KIO ST 21, block 260A, Singapore",1.3693737,103.8340217
"GEYLANG, UBI AVE 1, block 347, Singapore",1.3256486,103.8997342
"BEDOK, BEDOK NTH ST 3, block 547, Singapore",1.3256355,103.9295201
"TAMPINES, TAMPINES AVE 9, block 486C, Singapore",1.3591536,103.9573699
"TAMPINES, TAMPINES ST 72, block 719, Singapore",1.3588128,103.9361693
"JURONG WEST, JURONG WEST ST 91, block 934, Singapore",1.3422393,103.6887044
"SENGKANG, SENGKANG WEST WAY, block 450B, Singapore",1.393948,103.873277
"BEDOK, BEDOK NTH ST 4, block 187B, Singapore",1.3257849,103.9294412
"SENGKANG, RIVERVALE CRES, block 184B, Singapore",1.3922509,103.9073299
"JURONG WEST, JURONG WEST ST 65, block 619, Singapore",1.3413873,103.6998224
"BUKIT MERAH, TAMAN HO SWEE, block 18, Singapore",1.288142,103.8310465
"ANG MO KIO, ANG MO KIO AVE 10, block 472, Singapore",1.3631604,103.858121
"BUKIT MERAH, BT PURMEI RD, block 112, Singapore",1.2745295,103.8259281
"BUKIT BATOK, BT BATOK ST 21, block 293B, Singapore",1.3460408,103.7542905
"CHOA CHU KANG, TECK WHYE LANE, block 118, Singapore",1.3798511,103.7505499
"BUKIT BATOK, BT BATOK WEST AVE 5, block 389, Singapore",1.3655308,103.752092
"GEYLANG, CIRCUIT RD, block 17B, Singapore",1.3299984,103.8891837
"JURONG WEST, JURONG WEST ST 93, block 989D, Singapore",1.3357932,103.6954443
"CENTRAL AREA, BAIN ST, block 233, Singapore",1.2967926,103.8540468
"HOUGANG, UPP SERANGOON CRES, block 475C, Singapore",1.3754551,103.8999413
"PASIR RIS, PASIR RIS ST 51, block 525A, Singapore",1.3693179,103.9473468
"GEYLANG, PAYA LEBAR WAY, block 121, Singapore",1.3219839,103.8827763
"GEYLANG, EUNOS CRES, block 11, Singapore",1.3221218,103.9043506
"PUNGGOL, EDGEDALE PLAINS, block 662A, Singapore",1.4020676,103.9184646
"SERANGOON, SERANGOON CTRL, block 414, Singapore",1.3487296,103.8744161
"PUNGGOL, PUNGGOL PL, block 209C, Singapore",1.3992688,103.9008497
"CHOA CHU KANG, CHOA CHU KANG AVE 4, block 445, Singapore",1.3820649,103.7371982
"BUKIT MERAH, TELOK BLANGAH DR, block 47, Singapore",1.2720806,103.8101053
"YISHUN, YISHUN ST 61, block 609, Singapore",1.4210554,103.8360951
"CENTRAL AREA, CANTONMENT RD, block 1A, Singapore",1.2779001,103.8408656
"JURONG EAST, JURONG EAST ST 21, block 238, Singapore",1.3407045,103.740534
"BUKIT BATOK, BT BATOK ST 21, block 293A, Singapore",1.3459539,103.7549535
"BUKIT TIMAH, TOH YI DR, block 12, Singapore",1.3384038,103.7726528
"JURONG WEST, JURONG WEST ST 52, block 520, Singapore",1.3461526,103.7179156
"SEMBAWANG, MONTREAL DR, block 504B, Singapore",1.450995,103.8233177
"BUKIT PANJANG, SEGAR RD, block 465, Singapore",1.3872461,103.772633
"QUEENSTOWN, CLARENCE LANE, block 130, Singapore",1.2924028,103.8140398
"KALLANG/WHAMPOA, UPP BOON KENG RD, block 8C, Singapore",1.3131801,103.8707602
"PUNGGOL, EDGEDALE PLAINS, block 683B, Singapore",1.4046522,103.9149243
"BEDOK, BEDOK RESERVOIR RD, block 621, Singapore",1.3346146,103.9167618
"SENGKANG, RIVERVALE DR, block 121B, Singapore",1.386451,103.9048408
"BUKIT MERAH, DEPOT RD, block 103B, Singapore",1.2808119,103.8130737
"PASIR RIS, CHANGI VILLAGE RD, block 5, Singapore",1.388509,103.9870326
"SENGKANG, ANCHORVALE RD, block 317B, Singapore",1.3940408,103.8883023
"SENGKANG, COMPASSVALE LINK, block 275A, Singapore",1.3829281,103.8946972
"CHOA CHU KANG, CHOA CHU KANG ST 52, block 571, Singapore",1.3939454,103.7449226
"SENGKANG, ANCHORVALE RD, block 326C, Singapore",1.3957547,103.8879833
"JURONG WEST, JURONG WEST CTRL 1, block 691, Singapore",1.3418629,103.7063375
"SERANGOON, SERANGOON NTH AVE 4, block 519, Singapore",1.3646834,103.8722097
"TAMPINES, TAMPINES ST 82, block 854, Singapore",1.3529469,103.9366982
"BISHAN, SIN MING AVE, block 445, Singapore",1.3587129,103.8316419
"BEDOK, BEDOK RESERVOIR VIEW, block 774, Singapore",1.3365111,103.9368316
"SENGKANG, RIVERVALE CRES, block 183B, Singapore",1.391138,103.9083519
"PASIR RIS, PASIR RIS ST 11, block 115, Singapore",1.3686121,103.9552336
"WOODLANDS, WOODLANDS ST 83, block 858, Singapore",1.4405282,103.794521
"WOODLANDS, WOODLANDS ST 31, block 312, Singapore",1.430703,103.7755899
"BUKIT BATOK, BT BATOK EAST AVE 5, block 251, Singapore",1.3507251,103.7574975
"JURONG EAST, JURONG EAST ST 21, block 288E, Singapore",1.3402728,103.7434942
"SEMBAWANG, SEMBAWANG DR, block 479, Singapore",1.4526553,103.8156302
"PASIR RIS, PASIR RIS ST 21, block 206, Singapore",1.3663419,103.9628364
"JURONG WEST, JURONG WEST ST 81, block 824, Singapore",1.3463957,103.693911
"PUNGGOL, PUNGGOL RD, block 603C, Singapore",1.4034445,103.9079813
"CLEMENTI, CLEMENTI AVE 3, block 428, Singapore",1.3125545,103.7632083
"TAMPINES, TAMPINES AVE 5, block 937, Singapore",1.3470838,103.9414455
"TOA PAYOH, LOR 1A TOA PAYOH, block 139B, Singapore",1.3367855,103.8439944
"QUEENSTOWN, DAWSON RD, block 86, Singapore",1.2956741,103.8103377
"SENGKANG, FERNVALE RD, block 435C, Singapore",1.393486,103.876906
"TOA PAYOH, POTONG PASIR AVE 1, block 101, Singapore",1.3332085,103.8683714
"QUEENSTOWN, GHIM MOH RD, block 3, Singapore",1.31208,103.7872156
"YISHUN, YISHUN ST 51, block 505B, Singapore",1.4192544,103.8448706
"SEMBAWANG, CANBERRA WALK, block 108B, Singapore",1.4482237,103.8320072
"ANG MO KIO, ANG MO KIO AVE 5, block 602, Singapore",1.3807446,103.8353497
"BUKIT MERAH, TELOK BLANGAH CRES, block 12, Singapore",1.2771956,103.8196789
"TAMPINES, TAMPINES ST 23, block 214, Singapore",1.3546706,103.9535571
"BEDOK, BEDOK NTH RD, block 116, Singapore",1.3309759,103.9380791
"SENGKANG, RIVERVALE WALK, block 104, Singapore",1.3823776,103.9007147
"SENGKANG, SENGKANG CTRL, block 271A, Singapore",1.3859812,103.8947496
"HOUGANG, HOUGANG ST 32, block 376B, Singapore",1.3640633,103.8934844
"CHOA CHU KANG, CHOA CHU KANG NTH 5, block 763, Singapore",1.3930155,103.7484452
"PUNGGOL, PUNGGOL WAY, block 260A, Singapore",1.404923,103.8968404
"CLEMENTI, CLEMENTI WEST ST 2, block 729, Singapore",1.3050799,103.7634489
"CHOA CHU KANG, CHOA CHU KANG CRES, block 675, Singapore",1.4014368,103.7460597
"SEMBAWANG, CANBERRA RD, block 303, Singapore",1.4446355,103.8223512
"BUKIT PANJANG, FAJAR RD, block 439, Singapore",1.3830876,103.7704497
"JURONG WEST, JURONG WEST ST 93, block 990C, Singapore",1.3353983,103.695164
"BEDOK, BEDOK STH AVE 2, block 9, Singapore",1.3212599,103.933205
"CLEMENTI, CLEMENTI WEST ST 2, block 716, Singapore",1.3022629,103.7628803
"YISHUN, YISHUN AVE 11, block 445, Singapore",1.4232081,103.844655
"TAMPINES, TAMPINES ST 84, block 882, Singapore",1.3519633,103.9335049
"ANG MO KIO, ANG MO KIO AVE 10, block 439, Singapore",1.3663534,103.8533096
"YISHUN, YISHUN RING RD, block 677A, Singapore",1.4220127,103.8430131
"QUEENSTOWN, MEI LING ST, block 157, Singapore",1.2930056,103.8035591
"WOODLANDS, WOODLANDS ST 13, block 150, Singapore",1.4353334,103.7736799
"TOA PAYOH, LOR 1 TOA PAYOH, block 163, Singapore",1.3320706,103.8440377
"BUKIT BATOK, BT BATOK ST 22, block 296B, Singapore",1.3436237,103.747199
"ANG MO KIO, ANG MO KIO AVE 8, block 704, Singapore",1.3704271,103.8472324
"SERANGOON, LOR LEW LIAN, block 2, Singapore",1.3504547,103.8751866
"TAMPINES, TAMPINES ST 91, block 925, Singapore",1.3463604,103.9409712
"CHOA CHU KANG, CHOA CHU KANG CRES, block 673A, Singapore",1.4011897,103.7473785
"SERANGOON, SERANGOON AVE 4, block 217, Singapore",1.3576532,103.8720815
"JURONG WEST, JURONG WEST ST 52, block 517A, Singapore",1.3453476,103.7212627
"BISHAN, BISHAN ST 22, block 285, Singapore",1.3588914,103.8438555
"YISHUN, YISHUN RING RD, block 342C, Singapore",1.4299749,103.844134
"BISHAN, BISHAN ST 12, block 134, Singapore",1.3454607,103.8520836
"WOODLANDS, WOODLANDS DR 73, block 691A, Singapore",1.4404935,103.8068936
"QUEENSTOWN, GHIM MOH LINK, block 33, Singapore",1.3098439,103.7849188
"BUKIT PANJANG, PETIR RD, block 205, Singapore",1.373364,103.7738827
"JURONG WEST, BOON LAY AVE, block 186, Singapore",1.3455808,103.7113271
"BUKIT PANJANG, SENJA RD, block 633B, Singapore",1.3852027,103.7585682
"BUKIT BATOK, BT BATOK ST 21, block 207, Singapore",1.3462541,103.7493629
"SENGKANG, ANCHORVALE LINK, block 333B, Singapore",1.3946011,103.8911913
"PUNGGOL, PUNGGOL WALK, block 308B, Singapore",1.4073006,103.8999711
"TAMPINES, TAMPINES ST 45, block 494H, Singapore",1.3636938,103.9550686
"SERANGOON, SERANGOON NTH AVE 4, block 516, Singapore",1.3646834,103.8722097
"SENGKANG, FERNVALE RD, block 453C, Singapore",1.3933832,103.8748604
"GEYLANG, UBI AVE 1, block 346, Singapore",1.32602,103.8996559
"PUNGGOL, PUNGGOL DR, block 632B, Singapore",1.40083,103.913163
"BUKIT MERAH, JLN BT MERAH, block 131, Singapore",1.2801209,103.8283161
"TAMPINES, TAMPINES CTRL 7, block 518B, Singapore",1.3563154,103.9386044
"MARINE PARADE, MARINE CRES, block 29, Singapore",1.3028073,103.9132022
"BEDOK, BEDOK NTH ST 3, block 529, Singapore",1.3256355,103.9295201
"JURONG WEST, HO CHING RD, block 114, Singapore",1.3334256,103.7238236
"QUEENSTOWN, GHIM MOH LINK, block 26, Singapore",1.3083549,103.7856996
"KALLANG/WHAMPOA, WHAMPOA DR, block 101, Singapore",1.3204216,103.8538208
"YISHUN, YISHUN RING RD, block 360, Singapore",1.4277841,103.845774
"WOODLANDS, WOODLANDS DR 71, block 671, Singapore",1.4391334,103.7988502
"GEYLANG, CIRCUIT RD, block 58, Singapore",1.3250111,103.8864451
"TAMPINES, TAMPINES ST 61, block 605C, Singapore",1.3619327,103.9354518
"CLEMENTI, WEST COAST DR, block 506, Singapore",1.3125411,103.7607971
"SENGKANG, RIVERVALE CRES, block 157C, Singapore",1.3950754,103.9004967
"TOA PAYOH, LOR 7 TOA PAYOH, block 3, Singapore",1.3392232,103.8544865
"PASIR RIS, ELIAS RD, block 613, Singapore",1.3751509,103.9413773
"CHOA CHU KANG, CHOA CHU KANG AVE 4, block 441, Singapore",1.3832208,103.7397409
"YISHUN, YISHUN ST 81, block 879, Singapore",1.4144505,103.8361663
"TAMPINES, SIMEI ST 2, block 141, Singapore",1.3456554,103.9547751
"GEYLANG, GEYLANG EAST AVE 1, block 133, Singapore",1.3164471,103.8854687
"WOODLANDS, WOODLANDS DR 50, block 890B, Singapore",1.4383194,103.7924778
"JURONG WEST, JURONG WEST ST 92, block 931, Singapore",1.3416411,103.6897776
"YISHUN, YISHUN CTRL, block 320, Singapore",1.4293147,103.8415839
"GEYLANG, SIMS PL, block 53, Singapore",1.3182327,103.8800122
"BISHAN, BISHAN ST 13, block 172, Singapore",1.3473887,103.8533738
"GEYLANG, ALJUNIED CRES, block 112, Singapore",1.3204256,103.8850943
"TOA PAYOH, LOR 4 TOA PAYOH, block 80B, Singapore",1.3353312,103.8496543
"PASIR RIS, PASIR RIS ST 71, block 744, Singapore",1.3776342,103.9351644
"SENGKANG, COMPASSVALE LANE, block 206A, Singapore",1.3866949,103.896686
"ANG MO KIO, ANG MO KIO AVE 10, block 559, Singapore",1.3710214,103.8578536
"TOA PAYOH, LOR 5 TOA PAYOH, block 61, Singapore",1.3363933,103.852082
"BISHAN, BISHAN ST 22, block 262, Singapore",1.3592896,103.8425325
"BUKIT BATOK, BT BATOK ST 25, block 289D, Singapore",1.3435048,103.7592449
"SENGKANG, SENGKANG CTRL, block 271B, Singapore",1.3855866,103.8947479
"JURONG WEST, BOON LAY AVE, block 183D, Singapore",1.3491263,103.7089301
"YISHUN, YISHUN AVE 11, block 430B, Singapore",1.4208548,103.848397
"BISHAN, BISHAN ST 13, block 189, Singapore",1.350252,103.8518345
"SENGKANG, RIVERVALE CRES, block 151, Singapore",1.3923237,103.9056932
"YISHUN, YISHUN ST 81, block 816, Singapore",1.4117698,103.8333055
"JURONG WEST, BOON LAY PL, block 209, Singapore",1.3463061,103.7150333
"JURONG WEST, JURONG WEST ST 52, block 528, Singapore",1.3483286,103.7170188
"BEDOK, BEDOK NTH AVE 1, block 553, Singapore",1.3284637,103.9350757
"BUKIT MERAH, JLN MEMBINA, block 26A, Singapore",1.2830701,103.8260682
"ANG MO KIO, ANG MO KIO AVE 10, block 545, Singapore",1.3732261,103.8563633
"TAMPINES, TAMPINES ST 71, block 734, Singapore",1.3582024,103.9343575
"SENGKANG, FERNVALE LINK, block 418A, Singapore",1.3910702,103.8797687
"TOA PAYOH, LOR 1A TOA PAYOH, block 139A, Singapore",1.3363236,103.8439085
"BUKIT PANJANG, SENJA RD, block 630, Singapore",1.3867338,103.7597825
"SENGKANG, RIVERVALE CRES, block 163A, Singapore",1.3894817,103.908802
"TAMPINES, TAMPINES ST 43, block 494E, Singapore",1.3643858,103.9534516
"JURONG WEST, JURONG WEST ST 64, block 677A, Singapore",1.3459524,103.7045282
"SENGKANG, FERNVALE LINK, block 430B, Singapore",1.3940414,103.8784677
"JURONG WEST, JURONG WEST ST 41, block 469, Singapore",1.3485686,103.7212248
"BEDOK, CHAI CHEE RD, block 807A, Singapore",1.3271511,103.9231451
"YISHUN, YISHUN AVE 4, block 665, Singapore",1.4196869,103.8406695
"BUKIT BATOK, BT BATOK ST 52, block 501, Singapore",1.3515718,103.7550025
"JURONG WEST, TAH CHING RD, block 337A, Singapore",1.3377582,103.7228756
"QUEENSTOWN, DOVER CRES, block 21, Singapore",1.3070288,103.7846116
"YISHUN, YISHUN ST 31, block 336C, Singapore",1.4319106,103.8442391
"BUKIT PANJANG, JELAPANG RD, block 544, Singapore",1.382666,103.76305
"YISHUN, YISHUN RING RD, block 110, Singapore",1.4336611,103.8292839
"TAMPINES, TAMPINES AVE 4, block 806, Singapore",1.3454725,103.9371567
"CHOA CHU KANG, KEAT HONG CL, block 805C, Singapore",1.3726911,103.7437662
"QUEENSTOWN, GHIM MOH RD, block 8, Singapore",1.3105843,103.7876534
"PUNGGOL, PUNGGOL DR, block 619B, Singapore",1.4030323,103.91094
"BUKIT MERAH, CANTONMENT CL, block 11, Singapore",1.2744356,103.8396858
"PUNGGOL, PUNGGOL FIELD, block 270C, Singapore",1.404177,103.898748
"WOODLANDS, MARSILING RISE, block 131, Singapore",1.4384759,103.7785906
"BISHAN, BISHAN ST 13, block 157, Singapore",1.3460428,103.8567001
"SENGKANG, COMPASSVALE CRES, block 286C, Singapore",1.3978351,103.8962053
"BISHAN, BISHAN ST 13, block 171, Singapore",1.3468674,103.8536583
"JURONG WEST, JURONG WEST ST 73, block 747, Singapore",1.3476209,103.6972499
"PASIR RIS, PASIR RIS DR 6, block 451, Singapore",1.3714682,103.957871
"BUKIT PANJANG, JELEBU RD, block 183, Singapore",1.3800056,103.7631773
"YISHUN, YISHUN RING RD, block 450, Singapore",1.422128,103.844128
"GEYLANG, UBI AVE 1, block 344, Singapore",1.3262629,103.8994007
"SENGKANG, RIVERVALE DR, block 186B, Singapore",1.3925955,103.905333
"BEDOK, CHAI CHEE ST, block 50, Singapore",1.3293183,103.9225179
"YISHUN, YISHUN RING RD, block 854, Singapore",1.4166174,103.8374425
"SENGKANG, COMPASSVALE LINK, block 273B, Singapore",1.384547,103.895027
"BUKIT BATOK, BT BATOK WEST AVE 6, block 450A, Singapore",1.3528228,103.7444896
"BUKIT MERAH, TELOK BLANGAH HTS, block 62, Singapore",1.2753463,103.8111461
"CLEMENTI, CLEMENTI AVE 1, block 421, Singapore",1.3091515,103.7685306
"SEMBAWANG, ADMIRALTY DR, block 356B, Singapore",1.449223,103.8173555
"HOUGANG, UPP SERANGOON CRES, block 473A, Singapore",1.3768331,103.9003936
"YISHUN, YISHUN ST 81, block 839, Singapore",1.4159197,103.8336195
"JURONG EAST, JURONG EAST ST 32, block 306, Singapore",1.3461043,103.7352512
"QUEENSTOWN, C'WEALTH DR, block 91, Singapore",1.3007663,103.7993984
"TOA PAYOH, LOR 1A TOA PAYOH, block 138C, Singapore",1.3363635,103.8456043
"YISHUN, YISHUN ST 11, block 130, Singapore",1.4335337,103.8313761
"QUEENSTOWN, GHIM MOH LINK, block 27, Singapore",1.3084046,103.7852478
"JURONG WEST, JURONG WEST ST 61, block 650A, Singapore",1.338001,103.6967291
"SEMBAWANG, CANBERRA CRES, block 120A, Singapore",1.4459937,103.8322364
"TAMPINES, TAMPINES ST 81, block 896, Singapore",1.3483014,103.9324581
"PASIR RIS, PASIR RIS DR 4, block 232, Singapore",1.3746471,103.9616783
"YISHUN, YISHUN ST 51, block 502B, Singapore",1.4168059,103.8415017
"BEDOK, BEDOK NTH ST 2, block 135, Singapore",1.3256355,103.9295201
"QUEENSTOWN, GHIM MOH RD, block 14, Singapore",1.3088617,103.789157
"WOODLANDS, WOODLANDS DR 50, block 891A, Singapore",1.4377467,103.7911999
"CHOA CHU KANG, CHOA CHU KANG CTRL, block 239, Singapore",1.3794924,103.7475205
"SERANGOON, SERANGOON NTH AVE 3, block 547, Singapore",1.3646741,103.8722429
"JURONG WEST, JURONG WEST AVE 1, block 484, Singapore",1.3481291,103.7262498
"YISHUN, YISHUN RING RD, block 166, Singapore",1.4363075,103.8316116
"PASIR RIS, PASIR RIS DR 6, block 428, Singapore",1.3694733,103.9564782
"WOODLANDS, WOODLANDS DR 50, block 896A, Singapore",1.4364219,103.7930957
"QUEENSTOWN, HOLLAND CL, block 32, Singapore",1.3070518,103.7960363
"YISHUN, YISHUN RING RD, block 402, Singapore",1.42655,103.8472413
"ANG MO KIO, ANG MO KIO AVE 3, block 586, Singapore",1.3701472,103.8534157
"SEMBAWANG, SEMBAWANG CRES, block 362B, Singapore",1.4466546,103.8136576
"YISHUN, YISHUN ST 22, block 271, Singapore",1.4378504,103.840383
"BUKIT BATOK, BT BATOK ST 31, block 368, Singapore",1.3603911,103.7506965
"HOUGANG, HOUGANG ST 31, block 372, Singapore",1.3633777,103.890291
"SENGKANG, FERNVALE LINK, block 467B, Singapore",1.398133,103.8780284
"CLEMENTI, CLEMENTI AVE 5, block 326, Singapore",1.3144608,103.7665397
"YISHUN, YISHUN AVE 1, block 431B, Singapore",1.4204045,103.8473964
"WOODLANDS, MARSILING RD, block 141, Singapore",1.4373448,103.7771304
"SENGKANG, ANCHORVALE RD, block 309D, Singapore",1.3909243,103.8856331
"BEDOK, BEDOK RESERVOIR RD, block 124, Singapore",1.3326976,103.9100725
"WOODLANDS, WOODLANDS DR 62, block 683C, Singapore",1.4381922,103.7889597
"WOODLANDS, WOODLANDS ST 82, block 843, Singapore",1.4431391,103.792743
"PASIR RIS, PASIR RIS ST 21, block 221, Singapore",1.3702694,103.9613611
"PASIR RIS, ELIAS RD, block 606, Singapore",1.3768323,103.9426569
"WOODLANDS, WOODLANDS DR 75, block 689E, Singapore",1.4439847,103.8085492
"BUKIT BATOK, BT BATOK WEST AVE 6, block 191, Singapore",1.3456137,103.745322
"WOODLANDS, WOODLANDS ST 13, block 184A, Singapore",1.4361735,103.7770811
"WOODLANDS, MARSILING LANE, block 12A, Singapore",1.441353,103.77841
"WOODLANDS, WOODLANDS DR 16, block 576, Singapore",1.4303566,103.7967618
"SENGKANG, ANCHORVALE CRES, block 335A, Singapore",1.3978464,103.8891686
"CHOA CHU KANG, CHOA CHU KANG NTH 5, block 753, Singapore",1.3923058,103.7468885
"YISHUN, YISHUN AVE 6, block 287, Singapore",1.4395969,103.8376957
"BUKIT PANJANG, BT PANJANG RING RD, block 435, Singapore",1.3859406,103.770426
"CLEMENTI, CLEMENTI AVE 4, block 311B, Singapore",1.3194959,103.7656663
"TAMPINES, SIMEI ST 4, block 231, Singapore",1.3436337,103.9568179
"ANG MO KIO, ANG MO KIO AVE 8, block 506, Singapore",1.3744195,103.8488719
"YISHUN, YISHUN ST 51, block 502A, Singapore",1.416325,103.8414846
"BUKIT PANJANG, SENJA RD, block 635B, Singapore",1.3867068,103.7579446
"YISHUN, YISHUN AVE 11, block 459, Singapore",1.4210114,103.846308
"BEDOK, BEDOK NTH ST 3, block 510, Singapore",1.3256355,103.9295201
"HOUGANG, BUANGKOK CRES, block 986B, Singapore",1.3822191,103.879861
"JURONG WEST, JURONG WEST ST 41, block 457, Singapore",1.3507135,103.720908
"GEYLANG, ALJUNIED CRES, block 108, Singapore",1.3191155,103.885217
"BISHAN, BISHAN ST 13, block 158, Singapore",1.3465069,103.8562804
"HOUGANG, HOUGANG AVE 3, block 1, Singapore",1.3641336,103.8929246
"ANG MO KIO, ANG MO KIO AVE 3, block 325, Singapore",1.3679091,103.8468454
"HOUGANG, HOUGANG AVE 8, block 617, Singapore",1.36946,103.8836614
"TAMPINES, TAMPINES ST 72, block 722, Singapore",1.3599557,103.9357319
"SENGKANG, ANCHORVALE LINK, block 303C, Singapore",1.3878647,103.8900333
"ANG MO KIO, ANG MO KIO AVE 8, block 513, Singapore",1.3727497,103.8502032
"SERANGOON, SERANGOON AVE 2, block 308, Singapore",1.3541719,103.8658331
"CHOA CHU KANG, KEAT HONG CL, block 803C, Singapore",1.37348,103.7440413
"YISHUN, YISHUN RING RD, block 310, Singapore",1.4320911,103.8414025
"KALLANG/WHAMPOA, KENT RD, block 51, Singapore",1.3170528,103.8525746
"PUNGGOL, EDGEDALE PLAINS, block 121B, Singapore",1.3941208,103.9083828
"KALLANG/WHAMPOA, TOWNER RD, block 103, Singapore",1.3206492,103.8616347
"KALLANG/WHAMPOA, JLN RAJAH, block 101, Singapore",1.3288865,103.8499939
"SENGKANG, RIVERVALE DR, block 116B, Singapore",1.3818086,103.9023902
"BUKIT BATOK, BT BATOK ST 22, block 296C, Singapore",1.3436803,103.7480347
"CHOA CHU KANG, CHOA CHU KANG CRES, block 670A, Singapore",1.4030491,103.7477884
"GEYLANG, SIMS DR, block 41, Singapore",1.3169102,103.8755619
"ANG MO KIO, ANG MO KIO AVE 10, block 442, Singapore",1.3656709,103.8552277
"TAMPINES, TAMPINES ST 11, block 113, Singapore",1.3465024,103.9462926
"TAMPINES, TAMPINES ST 11, block 110, Singapore",1.3469845,103.9492863
"JURONG WEST, JURONG WEST ST 52, block 511, Singapore",1.3478915,103.7194908
"ANG MO KIO, ANG MO KIO AVE 3, block 326, Singapore",1.3670836,103.8478975
"QUEENSTOWN, DOVER CRES, block 28A, Singapore",1.3050588,103.7819746
"CHOA CHU KANG, CHOA CHU KANG CRES, block 684A, Singapore",1.4040831,103.7466116
"MARINE PARADE, MARINE TER, block 19, Singapore",1.304803,103.9148736
"WOODLANDS, WOODLANDS DR 75, block 688C, Singapore",1.4434216,103.8072744
"SEMBAWANG, CANBERRA CRES, block 119A, Singapore",1.4460648,103.8310796
"GEYLANG, CIRCUIT RD, block 49, Singapore",1.3251367,103.885596
"BUKIT MERAH, TELOK BLANGAH ST 31, block 92B, Singapore",1.2758998,103.8068102
"GEYLANG, CASSIA CRES, block 30, Singapore",1.309494,103.8830401
"JURONG EAST, JURONG EAST ST 21, block 287A, Singapore",1.3384261,103.7438056
"BUKIT MERAH, HENDERSON RD, block 95B, Singapore",1.2870311,103.8215329
"HOUGANG, UPP SERANGOON CRES, block 475B, Singapore",1.3758799,103.8999671
"WOODLANDS, WOODLANDS AVE 1, block 571A, Singapore",1.4302085,103.7910329
"SEMBAWANG, CANBERRA RD, block 306, Singapore",1.4451212,103.8245911
"BUKIT MERAH, TELOK BLANGAH DR, block 49, Singapore",1.2722469,103.810928
"CLEMENTI, CLEMENTI AVE 2, block 336, Singapore",1.3164146,103.7692668
"BUKIT BATOK, BT BATOK ST 21, block 216, Singapore",1.3471116,103.7536741
"KALLANG/WHAMPOA, BOON KENG RD, block 9, Singapore",1.3160906,103.8612552
"PUNGGOL, PUNGGOL CTRL, block 191, Singapore",1.3996142,103.9097366
"BUKIT BATOK, BT BATOK ST 21, block 212, Singapore",1.3471745,103.7521361
"WOODLANDS, WOODLANDS DR 62, block 694C, Singapore",1.4381922,103.7889597
"BUKIT PANJANG, FAJAR RD, block 453, Singapore",1.3854174,103.7714891
"WOODLANDS, WOODLANDS DR 16, block 542, Singapore",1.4276622,103.7937785
"HOUGANG, UPP SERANGOON CRES, block 470A, Singapore",1.3791845,103.9019578
"WOODLANDS, WOODLANDS CRES, block 780C, Singapore",1.4478251,103.8012423
"TAMPINES, TAMPINES AVE 4, block 803, Singapore",1.345141,103.9378287
"BUKIT BATOK, BT BATOK ST 33, block 325, Singapore",1.3625386,103.7476166
"SEMBAWANG, CANBERRA RD, block 420, Singapore",1.4526363,103.8187689
"CHOA CHU KANG, CHOA CHU KANG DR, block 687C, Singapore",1.4036767,103.7512923
"WOODLANDS, MARSILING DR, block 23, Singapore",1.4415647,103.7730816
"YISHUN, YISHUN AVE 9, block 315A, Singapore",1.4324084,103.842494
"WOODLANDS, WOODLANDS ST 13, block 110, Singapore",1.4376042,103.7815724
"YISHUN, YISHUN AVE 4, block 861, Singapore",1.4174374,103.8395683
"HOUGANG, HOUGANG CTRL, block 835, Singapore",1.3696626,103.8899843
"CLEMENTI, CLEMENTI AVE 3, block 440A, Singapore",1.3159293,103.7640734
"CHOA CHU KANG, TECK WHYE LANE, block 105, Singapore",1.3776477,103.752985
"SENGKANG, FERNVALE LINK, block 470C, Singapore",1.39635,103.8793872
"BISHAN, BISHAN ST 12, block 124, Singapore",1.3465209,103.851259
"KALLANG/WHAMPOA, DORSET RD, block 49, Singapore",1.3127161,103.8499315
"KALLANG/WHAMPOA, WHAMPOA DR, block 82, Singapore",1.3241574,103.8567625
"SENGKANG, COMPASSVALE LANE, block 207B, Singapore",1.3847396,103.8978149
"ANG MO KIO, ANG MO KIO AVE 1, block 219, Singapore",1.3659848,103.8405633
"PASIR RIS, PASIR RIS DR 4, block 458, Singapore",1.3714892,103.9596626
"TOA PAYOH, JOO SENG RD, block 9, Singapore",1.3348683,103.8791035
"YISHUN, YISHUN ST 41, block 453, Singapore",1.4198734,103.8456245
"BEDOK, BEDOK RESERVOIR RD, block 703, Singapore",1.3371946,103.9198822
"SEMBAWANG, CANBERRA WALK, block 108A, Singapore",1.4478043,103.8312796
"BISHAN, BISHAN ST 23, block 214, Singapore",1.3574938,103.8483954
"TAMPINES, TAMPINES AVE 5, block 148, Singapore",1.350623,103.9419927
"TOA PAYOH, TOA PAYOH EAST, block 27, Singapore",1.3323347,103.8564456
"CENTRAL AREA, QUEEN ST, block 271, Singapore",1.3010138,103.8537971
"ANG MO KIO, ANG MO KIO AVE 8, block 710, Singapore",1.3710677,103.8481845
"BUKIT MERAH, JLN BT MERAH, block 135, Singapore",1.2787008,103.8271025
"BUKIT MERAH, TELOK BLANGAH RISE, block 28, Singapore",1.2739753,103.820896
"SENGKANG, RIVERVALE ST, block 140, Singapore",1.3892321,103.9037149
"BUKIT MERAH, BT MERAH VIEW, block 119, Singapore",1.283555,103.8209685
"TAMPINES, TAMPINES ST 86, block 871B, Singapore",1.3564914,103.9319762
"BEDOK, BEDOK NTH AVE 2, block 409, Singapore",1.3284319,103.9349085
"PASIR RIS, PASIR RIS ST 51, block 528B, Singapore",1.3706223,103.9481037
"PUNGGOL, EDGEFIELD PLAINS, block 672D, Singapore",1.4076894,103.9109408
"PASIR RIS, PASIR RIS DR 10, block 650, Singapore",1.378856,103.9379582
"GEYLANG, EUNOS CRES, block 18, Singapore",1.3237959,103.9043689
"KALLANG/WHAMPOA, ST. GEORGE'S RD, block 14, Singapore",1.3237114,103.8620306
"SEMBAWANG, CANBERRA ST, block 107C, Singapore",1.448702,103.833588
"WOODLANDS, WOODLANDS AVE 5, block 356, Singapore",1.4334125,103.7849475
"PUNGGOL, PUNGGOL EAST, block 167D, Singapore",1.394542,103.914562
"BEDOK, BEDOK RESERVOIR RD, block 607, Singapore",1.3310889,103.9127224
"SEMBAWANG, SEMBAWANG CL, block 329, Singapore",1.4462634,103.8176511
"HOUGANG, HOUGANG AVE 8, block 620, Singapore",1.3702072,103.8837245
"SENGKANG, COMPASSVALE DR, block 216C, Singapore",1.3905037,103.8942821
"SENGKANG, COMPASSVALE LINK, block 268B, Singapore",1.384397,103.8963442
"CLEMENTI, CLEMENTI AVE 1, block 423, Singapore",1.309408,103.7698098
"SENGKANG, SENGKANG EAST AVE, block 280A, Singapore",1.3862838,103.8923212
"BUKIT MERAH, INDUS RD, block 78, Singapore",1.2915025,103.8271968
"GEYLANG, HAIG RD, block 1, Singapore",1.3112025,103.8976789
"YISHUN, YISHUN ST 51, block 513A, Singapore",1.4158766,103.8433414
"PASIR RIS, PASIR RIS DR 1, block 533, Singapore",1.3709077,103.9509413
"PASIR RIS, PASIR RIS DR 1, block 530B, Singapore",1.3716474,103.9497037
"PUNGGOL, PUNGGOL CTRL, block 161B, Singapore",1.3958567,103.9152405
"BISHAN, BISHAN ST 12, block 105, Singapore",1.3459569,103.8476547
"YISHUN, YISHUN ST 61, block 613, Singapore",1.4201235,103.8351908
"PUNGGOL, EDGEDALE PLAINS, block 684A, Singapore",1.4028145,103.9156021
"YISHUN, YISHUN AVE 11, block 416, Singapore",1.4239538,103.8457413
"ANG MO KIO, ANG MO KIO AVE 5, block 604, Singapore",1.3798962,103.8359649
"TAMPINES, TAMPINES ST 12, block 144, Singapore",1.3483959,103.9436804
"PUNGGOL, PUNGGOL WALK, block 212A, Singapore",1.3999856,103.899102
"SEMBAWANG, ADMIRALTY LINK, block 403, Singapore",1.4539101,103.8161695
"TAMPINES, TAMPINES AVE 5, block 942, Singapore",1.3497843,103.9406149
"WOODLANDS, WOODLANDS RING RD, block 639, Singapore",1.4376532,103.8030745
"ANG MO KIO, ANG MO KIO ST 52, block 588C, Singapore",1.3718689,103.8535776
"BUKIT PANJANG, SENJA RD, block 633C, Singapore",1.3846482,103.7593113
"SEMBAWANG, ADMIRALTY LINK, block 402, Singapore",1.4538569,103.8156869
"ANG MO KIO, ANG MO KIO AVE 3, block 214, Singapore",1.3675258,103.8409173
"CENTRAL AREA, VEERASAMY RD, block 633, Singapore",1.3058233,103.8548932
"TOA PAYOH, TOA PAYOH NTH, block 205, Singapore",1.3421469,103.8482103
"JURONG WEST, JURONG WEST ST 42, block 545, Singapore",1.3522424,103.7152164
"BUKIT BATOK, BT BATOK ST 31, block 306, Singapore",1.358301,103.7475443
"JURONG WEST, JURONG WEST ST 81, block 830A, Singapore",1.3452364,103.6941242
"SENGKANG, RIVERVALE CRES, block 155, Singapore",1.3906612,103.9072031
"HOUGANG, HOUGANG AVE 7, block 351, Singapore",1.3717288,103.8989476
"JURONG EAST, TOH GUAN RD, block 286C, Singapore",1.3390723,103.7445362
"BEDOK, BEDOK NTH RD, block 108, Singapore",1.3326676,103.936232
"BUKIT MERAH, TELOK BLANGAH WAY, block 34, Singapore",1.2735811,103.8224539
"BUKIT BATOK, BT BATOK WEST AVE 5, block 436A, Singapore",1.3588917,103.7401425
"JURONG WEST, JURONG WEST ST 93, block 977, Singapore",1.3398058,103.6938973
"WOODLANDS, WOODLANDS DR 44, block 552, Singapore",1.4319367,103.7951789
"CHOA CHU KANG, CHOA CHU KANG AVE 4, block 454, Singapore",1.3791421,103.7347637
"BUKIT MERAH, TELOK BLANGAH CRES, block 5, Singapore",1.2787336,103.8192259
"TOA PAYOH, LOR 8 TOA PAYOH, block 226, Singapore",1.3395144,103.8570645
"GEYLANG, CASSIA CRES, block 28, Singapore",1.3090145,103.8836338
"CHOA CHU KANG, CHOA CHU KANG AVE 1, block 818B, Singapore",1.3772949,103.7483301
"CHOA CHU KANG, TECK WHYE LANE, block 110, Singapore",1.3782432,103.7519843
"SENGKANG, COMPASSVALE ST, block 262D, Singapore",1.3943151,103.8949667
"KALLANG/WHAMPOA, WHAMPOA RD, block 113, Singapore",1.3258979,103.8572768
"JURONG WEST, JURONG WEST ST 71, block 712, Singapore",1.3422307,103.6964519
"WOODLANDS, WOODLANDS DR 70, block 712, Singapore",1.4418006,103.7971027
"CLEMENTI, CLEMENTI WEST ST 1, block 602, Singapore",1.3050239,103.7667127
"SEMBAWANG, CANBERRA RD, block 418, Singapore",1.4524097,103.819395
"BUKIT MERAH, TELOK BLANGAH ST 31, block 93B, Singapore",1.2750263,103.8081897
"BUKIT MERAH, KIM TIAN PL, block 121A, Singapore",1.282704,103.8281989
"PASIR RIS, PASIR RIS ST 71, block 760, Singapore",1.3767998,103.9331153
"SENGKANG, SENGKANG CTRL, block 272C, Singapore",1.3844714,103.8936465
"BEDOK, BEDOK NTH ST 3, block 537, Singapore",1.3256355,103.9295201
"WOODLANDS, WOODLANDS AVE 1, block 338, Singapore",1.4307872,103.7811598
"WOODLANDS, WOODLANDS ST 13, block 166, Singapore",1.4336992,103.7753992
"JURONG WEST, JURONG WEST ST 81, block 853, Singapore",1.3472361,103.6931096
"CHOA CHU KANG, CHOA CHU KANG CRES, block 686D, Singapore",1.4040947,103.7484392
"YISHUN, YISHUN RING RD, block 452, Singapore",1.422158,103.8454597
"JURONG WEST, JURONG WEST ST 41, block 478, Singapore",1.3473261,103.7239549
"BEDOK, BEDOK RESERVOIR VIEW, block 761, Singapore",1.3362352,103.9339311
"ANG MO KIO, ANG MO KIO AVE 3, block 426, Singapore",1.3695055,103.8532942
"PUNGGOL, PUNGGOL DR, block 306D, Singapore",1.4061071,103.9064996
"KALLANG/WHAMPOA, ST. GEORGE'S LANE, block 25A, Singapore",1.3219871,103.86185
"TAMPINES, TAMPINES ST 22, block 275, Singapore",1.3478488,103.9504289
"JURONG EAST, TEBAN GDNS RD, block 47, Singapore",1.3201378,103.7399376
"HOUGANG, HOUGANG ST 51, block 548, Singapore",1.3795519,103.891404
"PASIR RIS, PASIR RIS ST 11, block 143, Singapore",1.36218,103.9605211
"JURONG WEST, JURONG WEST ST 64, block 678C, Singapore",1.3448554,103.7037349
"BUKIT MERAH, TELOK BLANGAH ST 31, block 92A, Singapore",1.2765858,103.8075209
"WOODLANDS, WOODLANDS ST 82, block 881, Singapore",1.4445061,103.7919223
"ANG MO KIO, ANG MO KIO AVE 1, block 337, Singapore",1.3632213,103.8516123
"BUKIT BATOK, BT BATOK ST 34, block 352, Singapore",1.3616214,103.7494506
"YISHUN, YISHUN ST 21, block 220, Singapore",1.433467,103.8353782
"CLEMENTI, CLEMENTI AVE 1, block 420, Singapore",1.3101989,103.7689955
"PUNGGOL, PUNGGOL DR, block 663A, Singapore",1.400311,103.9168232
"TAMPINES, TAMPINES ST 41, block 424, Singapore",1.3574329,103.9481853
"PASIR RIS, PASIR RIS ST 71, block 748, Singapore",1.3785053,103.9349396
"BEDOK, BEDOK RESERVOIR RD, block 149, Singapore",1.3357518,103.9127048
"JURONG EAST, PANDAN GDNS, block 403, Singapore",1.3203371,103.7494032
"TOA PAYOH, LOR 2 TOA PAYOH, block 152, Singapore",1.3341078,103.8458551
"SENGKANG, COMPASSVALE WALK, block 228B, Singapore",1.387921,103.9011948
"QUEENSTOWN, DAWSON RD, block 92, Singapore",1.2950381,103.8111459
"SENGKANG, FERNVALE LINK, block 470A, Singapore",1.3963872,103.8794633
"SENGKANG, ANCHORVALE DR, block 320C, Singapore",1.3911463,103.8913751
"CHOA CHU KANG, CHOA CHU KANG ST 51, block 535, Singapore",1.3914111,103.7441164
"PASIR RIS, PASIR RIS ST 12, block 101, Singapore",1.3670388,103.9581767
"BISHAN, BISHAN ST 13, block 168, Singapore",1.3473281,103.8541696
"PUNGGOL, PUNGGOL DR, block 618A, Singapore",1.4012509,103.9124505
"WOODLANDS, WOODLANDS AVE 4, block 756, Singapore",1.4457667,103.7931211
"WOODLANDS, WOODLANDS RING RD, block 646, Singapore",1.4375384,103.8003872
"TAMPINES, SIMEI LANE, block 167A, Singapore",1.3433663,103.9591103
"TOA PAYOH, JOO SENG RD, block 11, Singapore",1.3350151,103.8807028
"WOODLANDS, WOODLANDS DR 14, block 508, Singapore",1.4321966,103.790572
"CLEMENTI, CLEMENTI AVE 6, block 205, Singapore",1.321114,103.7623626
"YISHUN, YISHUN ST 31, block 335C, Singapore",1.432464,103.8442719
"SENGKANG, COMPASSVALE CRES, block 289A, Singapore",1.3975977,103.8978147
"BUKIT MERAH, JLN MEMBINA, block 25A, Singapore",1.2835253,103.8261914
"ANG MO KIO, ANG MO KIO AVE 5, block 648, Singapore",1.3782809,103.8438426
"YISHUN, YISHUN AVE 4, block 660, Singapore",1.421754,103.8399324
"BUKIT PANJANG, SEGAR RD, block 547A, Singapore",1.3882214,103.7699056
"JURONG EAST, JURONG EAST ST 21, block 211, Singapore",1.3386004,103.7400021
"BUKIT PANJANG, PETIR RD, block 201, Singapore",1.3719317,103.7751989
"WOODLANDS, WOODLANDS ST 13, block 183B, Singapore",1.4352813,103.7774372
"BUKIT MERAH, JLN MEMBINA, block 22, Singapore",1.2848617,103.8265357
"SENGKANG, SENGKANG WEST WAY, block 451A, Singapore",1.3945196,103.8739108
"YISHUN, YISHUN AVE 11, block 347A, Singapore",1.4271813,103.8429411
"BEDOK, BEDOK NTH AVE 1, block 522, Singapore",1.3284637,103.9350757
"WOODLANDS, WOODLANDS CIRCLE, block 741, Singapore",1.4443275,103.7957804
"HOUGANG, UPP SERANGOON RD, block 365D, Singapore",1.369564,103.8965236
"SENGKANG, FERNVALE ST, block 471A, Singapore",1.3959316,103.8805607
"SENGKANG, RIVERVALE DR, block 188C, Singapore",1.3950943,103.9048854
"HOUGANG, HOUGANG AVE 3, block 23, Singapore",1.3648919,103.8907921
"JURONG WEST, JURONG WEST AVE 5, block 726, Singapore",1.3459772,103.6970376
"SENGKANG, FERNVALE ST, block 472A, Singapore",1.3974896,103.8812504
"CHOA CHU KANG, CHOA CHU KANG CRES, block 690A, Singapore",1.4028507,103.7517119
"BUKIT BATOK, BT BATOK ST 25, block 288C, Singapore",1.3461054,103.7597399
"CLEMENTI, CLEMENTI AVE 1, block 424, Singapore",1.309602,103.7706409
"SERANGOON, SERANGOON AVE 4, block 215, Singapore",1.3580634,103.8734186
"BUKIT BATOK, BT BATOK EAST AVE 4, block 265, Singapore",1.3501082,103.7599344
"SENGKANG, ANCHORVALE LINK, block 332C, Singapore",1.3952659,103.8921499
"BUKIT BATOK, BT BATOK EAST AVE 5, block 253, Singapore",1.3501941,103.7575804
"PUNGGOL, PUNGGOL WAY, block 261A, Singapore",1.406024,103.8969283
"SENGKANG, COMPASSVALE BOW, block 274A, Singapore",1.3815856,103.8905288
"BISHAN, SIN MING AVE, block 449, Singapore",1.3583097,103.8309199
"JURONG WEST, JURONG WEST ST 91, block 945, Singapore",1.344339,103.6901467
"YISHUN, YISHUN AVE 11, block 423, Singapore",1.42269,103.8481197
"TAMPINES, TAMPINES ST 83, block 845, Singapore",1.3521378,103.9347236
"BEDOK, BEDOK NTH AVE 3, block 401, Singapore",1.3284314,103.9349086
"BUKIT BATOK, BT BATOK WEST AVE 9, block 448B, Singapore",1.3530788,103.7406651
"CHOA CHU KANG, CHOA CHU KANG DR, block 688B, Singapore",1.4035751,103.750327
"PUNGGOL, PUNGGOL PL, block 208C, Singapore",1.4008422,103.9012778
"HOUGANG, HOUGANG AVE 3, block 18, Singapore",1.3632354,103.8917949
"ANG MO KIO, ANG MO KIO AVE 3, block 571, Singapore",1.3700064,103.8549834
"JURONG WEST, JURONG WEST ST 64, block 662C, Singapore",1.3374436,103.7040255
"GEYLANG, CIRCUIT RD, block 43, Singapore",1.3264877,103.8855363
"HOUGANG, HOUGANG AVE 2, block 705, Singapore",1.3656537,103.8882738
"TAMPINES, SIMEI ST 4, block 228, Singapore",1.3425335,103.9558905
"SENGKANG, RIVERVALE DR, block 188B, Singapore",1.3949443,103.9053082
"ANG MO KIO, ANG MO KIO AVE 8, block 511, Singapore",1.3736576,103.8501351
"BEDOK, BEDOK STH AVE 2, block 36, Singapore",1.3212599,103.933205
"PASIR RIS, PASIR RIS ST 12, block 108, Singapore",1.3674829,103.9570724
"CHOA CHU KANG, CHOA CHU KANG DR, block 784, Singapore",1.39475,103.7472189
"BUKIT PANJANG, GANGSA RD, block 108, Singapore",1.3776908,103.7671602
"ANG MO KIO, ANG MO KIO AVE 1, block 307C, Singapore",1.3656022,103.8452059
"BUKIT PANJANG, PETIR RD, block 211, Singapore",1.3747077,103.7760108
"BUKIT MERAH, REDHILL RD, block 75B, Singapore",1.2884745,103.8158792
"BUKIT PANJANG, SEGAR RD, block 458, Singapore",1.3880961,103.771144
"HOUGANG, HOUGANG AVE 1, block 238, Singapore",1.357124,103.8890965
"HOUGANG, HOUGANG ST 22, block 245, Singapore",1.3584682,103.8916034
"BISHAN, BISHAN ST 13, block 181, Singapore",1.3489706,103.8529589
"SERANGOON, SERANGOON NTH AVE 4, block 537, Singapore",1.3646834,103.8722097
"BUKIT MERAH, DEPOT RD, block 105A, Singapore",1.2811483,103.8114483
"BUKIT MERAH, LIM LIAK ST, block 33, Singapore",1.2851263,103.8315808
"JURONG WEST, JURONG WEST AVE 5, block 723, Singapore",1.344294,103.6982101
"YISHUN, YISHUN AVE 5, block 706, Singapore",1.4288628,103.8289194
"PASIR RIS, PASIR RIS ST 71, block 751, Singapore",1.3781684,103.9340297
"PUNGGOL, EDGEFIELD PLAINS, block 105A, Singapore",1.3969977,103.9059043
"BUKIT MERAH, JLN BT MERAH, block 28, Singapore",1.286411,103.8098657
"PUNGGOL, SUMANG LANE, block 232C, Singapore",1.4020664,103.8902123
"WOODLANDS, MARSILING LANE, block 19, Singapore",1.4436697,103.7774816
"GEYLANG, HAIG RD, block 5, Singapore",1.3125881,103.8965932
"BEDOK, BEDOK STH AVE 2, block 33, Singapore",1.3212599,103.933205
"SENGKANG, COMPASSVALE CRES, block 286A, Singapore",1.3974058,103.8961679
"HOUGANG, UPP SERANGOON VIEW, block 476C, Singapore",1.3780166,103.9042656
"QUEENSTOWN, MEI LING ST, block 152, Singapore",1.2938678,103.80255
"CHOA CHU KANG, TECK WHYE LANE, block 17, Singapore",1.3792825,103.7538617
"BUKIT TIMAH, TOH YI DR, block 2, Singapore",1.3391451,103.7753602
"HOUGANG, HOUGANG AVE 9, block 967, Singapore",1.3782927,103.8787349
"YISHUN, YISHUN ST 71, block 715, Singapore",1.4268343,103.8270731
"CENTRAL AREA, VEERASAMY RD, block 632, Singapore",1.3061686,103.8544431
"SENGKANG, ANCHORVALE LINK, block 302A, Singapore",1.3879235,103.891157
"SENGKANG, ANCHORVALE RD, block 315C, Singapore",1.3924077,103.8878908
"BEDOK, BEDOK NTH AVE 4, block 99, Singapore",1.3284309,103.9349087
"TOA PAYOH, LOR 5 TOA PAYOH, block 57, Singapore",1.3370759,103.8512964
"BUKIT PANJANG, SENJA RD, block 633A, Singapore",1.3855288,103.7583601
"PASIR RIS, PASIR RIS ST 71, block 774, Singapore",1.3742563,103.936665
"SENGKANG, COMPASSVALE LINK, block 265A, Singapore",1.3825701,103.8952118
"JURONG WEST, JURONG WEST ST 61, block 622, Singapore",1.340703,103.6990007
"SENGKANG, COMPASSVALE LINK, block 277C, Singapore",1.3824775,103.8931708
"BEDOK, BEDOK STH AVE 3, block 166, Singapore",1.321903,103.9330761
"SENGKANG, ANCHORVALE CRES, block 334A, Singapore",1.3979865,103.8898638
"BEDOK, JLN TENAGA, block 656, Singapore",1.3337401,103.9075579
"KALLANG/WHAMPOA, BOON KENG RD, block 7, Singapore",1.3165959,103.861054
"BUKIT PANJANG, PENDING RD, block 223, Singapore",1.3757002,103.773613
"SEMBAWANG, ADMIRALTY LINK, block 492, Singapore",1.4564383,103.8171354
"YISHUN, YISHUN ST 81, block 872, Singapore",1.4134683,103.8371277
"CLEMENTI, CLEMENTI AVE 4, block 306, Singapore",1.32146,103.7658932
"SENGKANG, FERNVALE RD, block 443C, Singapore",1.3913947,103.8739175
"SENGKANG, FERNVALE ST, block 473A, Singapore",1.3982256,103.8806434
"TOA PAYOH, LOR 7 TOA PAYOH, block 20, Singapore",1.3349068,103.8571168
"HOUGANG, HOUGANG AVE 9, block 916, Singapore",1.3749313,103.8842941
"SERANGOON, SERANGOON CTRL, block 208, Singapore",1.3540794,103.8738484
"GEYLANG, HAIG RD, block 7, Singapore",1.3137968,103.8969039
"TAMPINES, TAMPINES ST 41, block 410, Singapore",1.3588014,103.9462712
"HOUGANG, BUANGKOK CRES, block 997B, Singapore",1.3859704,103.8811347
"TAMPINES, TAMPINES ST 91, block 911, Singapore",1.3498085,103.9398317
"YISHUN, YISHUN RING RD, block 813B, Singapore",1.4173244,103.8323073
"SEMBAWANG, ADMIRALTY DR, block 469, Singapore",1.4482088,103.8142756
"PUNGGOL, PUNGGOL PL, block 210B, Singapore",1.4001229,103.899999
"BUKIT MERAH, CANTONMENT CL, block 13, Singapore",1.2746874,103.8404881
"PASIR RIS, PASIR RIS DR 4, block 483, Singapore",1.3740541,103.9599875
"BUKIT PANJANG, JELEBU RD, block 185, Singapore",1.3793543,103.7622594
"CLEMENTI, CLEMENTI AVE 4, block 374, Singapore",1.3190388,103.7669946
"HOUGANG, BUANGKOK LINK, block 991B, Singapore",1.3839872,103.882271
"BUKIT MERAH, BT PURMEI RD, block 111, Singapore",1.2743901,103.8272301
"BUKIT PANJANG, SENJA RD, block 625, Singapore",1.385537,103.760438
"PUNGGOL, PUNGGOL WALK, block 272B, Singapore",1.4033135,103.9002561
"CLEMENTI, CLEMENTI AVE 4, block 311A, Singapore",1.3190589,103.7656354
"SENGKANG, COMPASSVALE ST, block 292B, Singapore",1.3957922,103.8986305
"SENGKANG, COMPASSVALE RD, block 249, Singapore",1.391876,103.8992195
"JURONG WEST, BOON LAY AVE, block 187, Singapore",1.3451906,103.7104709
"ANG MO KIO, ANG MO KIO AVE 1, block 207, Singapore",1.3658335,103.8427753
"PUNGGOL, PUNGGOL DR, block 612B, Singapore",1.404928,103.9081472
"CHOA CHU KANG, CHOA CHU KANG CTRL, block 205, Singapore",1.3809579,103.748568
"BEDOK, BEDOK NTH AVE 1, block 548, Singapore",1.3284637,103.9350757
"SENGKANG, ANCHORVALE ST, block 331A, Singapore",1.3961626,103.8903164
"JURONG EAST, JURONG EAST ST 21, block 288C, Singapore",1.339522,103.7434582
"TAMPINES, SIMEI LANE, block 168A, Singapore",1.342689,103.958899
"BEDOK, BEDOK RESERVOIR RD, block 128, Singapore",1.3335073,103.9115952
"BUKIT BATOK, BT BATOK CTRL, block 625, Singapore",1.3514855,103.7486968
"KALLANG/WHAMPOA, JLN BATU, block 5, Singapore",1.3015652,103.8840143
"PASIR RIS, PASIR RIS DR 1, block 530A, Singapore",1.371096,103.9497575
"QUEENSTOWN, DAWSON RD, block 87, Singapore",1.2958388,103.8099139
"WOODLANDS, WOODLANDS DR 42, block 603, Singapore",1.4377348,103.7965253
"WOODLANDS, WOODLANDS DR 14, block 524, Singapore",1.4326002,103.7937003
"CLEMENTI, CLEMENTI WEST ST 2, block 707, Singapore",1.3063407,103.7623697
"WOODLANDS, MARSILING DR, block 8, Singapore",1.441363,103.7771874
"CLEMENTI, CLEMENTI AVE 4, block 307, Singapore",1.3214399,103.7670986
"BISHAN, BRIGHT HILL DR, block 448, Singapore",1.3583052,103.8312482
"JURONG EAST, PANDAN GDNS, block 413, Singapore",1.3195245,103.7479634
"WOODLANDS, WOODLANDS RISE, block 783D, Singapore",1.4468765,103.8034938
"BUKIT BATOK, BT BATOK WEST AVE 8, block 171, Singapore",1.3461654,103.7403532
"HOUGANG, HOUGANG AVE 3, block 248, Singapore",1.3594147,103.8925366
"CLEMENTI, CLEMENTI AVE 4, block 308, Singapore",1.3210738,103.7669148
"QUEENSTOWN, C'WEALTH CL, block 85, Singapore",1.3012507,103.7981323
"PASIR RIS, PASIR RIS ST 11, block 140, Singapore",1.3639186,103.9589946
"JURONG WEST, JURONG WEST ST 93, block 987C, Singapore",1.3366699,103.6950974
"TAMPINES, TAMPINES ST 45, block 497B, Singapore",1.3587514,103.9581277
"BUKIT PANJANG, JELAPANG RD, block 501, Singapore",1.3834286,103.7669796
"BEDOK, BEDOK RESERVOIR RD, block 121, Singapore",1.3313246,103.909913
"JURONG EAST, JURONG EAST ST 21, block 213, Singapore",1.3390419,103.7397796
"HOUGANG, HOUGANG AVE 8, block 643, Singapore",1.3715787,103.8806208
"SENGKANG, FERNVALE RD, block 408A, Singapore",1.3887685,103.876292
"QUEENSTOWN, DOVER RD, block 3, Singapore",1.30375,103.7824553
"TOA PAYOH, LOR 7 TOA PAYOH, block 6, Singapore",1.3386116,103.8570793
"WOODLANDS, WOODLANDS DR 14, block 525, Singapore",1.4324908,103.7932253
"PUNGGOL, EDGEFIELD PLAINS, block 615A, Singapore",1.4042124,103.9095275
"YISHUN, YISHUN ST 22, block 279, Singapore",1.4385271,103.8376122
"TOA PAYOH, TOA PAYOH NTH, block 203, Singapore",1.3422279,103.8488671
"YISHUN, YISHUN RING RD, block 329, Singapore",1.430425,103.8425448
"YISHUN, YISHUN RING RD, block 342A, Singapore",1.4307809,103.8443152
"JURONG WEST, CORPORATION DR, block 140A, Singapore",1.3272536,103.7231201
"CENTRAL AREA, KELANTAN RD, block 28, Singapore",1.3059994,103.8572918
"QUEENSTOWN, STRATHMORE AVE, block 61B, Singapore",1.2937843,103.8119491
"KALLANG/WHAMPOA, CRAWFORD LANE, block 462, Singapore",1.3045349,103.8610712
"YISHUN, YISHUN ST 61, block 640, Singapore",1.4211301,103.8388803
"PASIR RIS, PASIR RIS ST 53, block 577, Singapore",1.3735402,103.9470022
"SENGKANG, FERNVALE RD, block 410A, Singapore",1.3903723,103.8759798
"TAMPINES, TAMPINES ST 22, block 295, Singapore",1.3508232,103.9549617
"CHOA CHU KANG, CHOA CHU KANG ST 52, block 546, Singapore",1.3930467,103.7431946
"JURONG WEST, JURONG WEST ST 91, block 943, Singapore",1.3436184,103.6898141
"TOA PAYOH, POTONG PASIR AVE 1, block 104, Singapore",1.3343451,103.8692235
"WOODLANDS, WOODLANDS CRES, block 780B, Singapore",1.4488911,103.8011656
"SENGKANG, FERNVALE LINK, block 468A, Singapore",1.3973988,103.8783576
"WOODLANDS, WOODLANDS CRES, block 780F, Singapore",1.4478251,103.8012423
"PUNGGOL, PUNGGOL WALK, block 308C, Singapore",1.4077415,103.899538
"PASIR RIS, PASIR RIS ST 12, block 188, Singapore",1.3652686,103.9591611
"WOODLANDS, WOODLANDS ST 83, block 862, Singapore",1.4400344,103.7951195
"WOODLANDS, WOODLANDS DR 62, block 694A, Singapore",1.4381922,103.7889597
"HOUGANG, HOUGANG AVE 7, block 357, Singapore",1.372974,103.8994701
"PASIR RIS, PASIR RIS ST 51, block 527B, Singapore",1.3690193,103.9478814
"WOODLANDS, WOODLANDS CRES, block 788C, Singapore",1.4438207,103.8018739
"SEMBAWANG, SEMBAWANG DR, block 466A, Singapore",1.4552886,103.8136078
"SEMBAWANG, SEMBAWANG CRES, block 362C, Singapore",1.4465394,103.8132831
"HOUGANG, HOUGANG AVE 9, block 932A, Singapore",1.3752276,103.8818712
"PUNGGOL, EDGEDALE PLAINS, block 172C, Singapore",1.3954553,103.9123804
"BUKIT PANJANG, SENJA RD, block 603, Singapore",1.381588,103.7621313
"YISHUN, YISHUN RING RD, block 792, Singapore",1.4207366,103.8321554
"YISHUN, YISHUN ST 51, block 512B, Singapore",1.4144708,103.8417616
"HOUGANG, HOUGANG ST 52, block 534, Singapore",1.3771868,103.8903456
"BEDOK, CHAI CHEE RD, block 807C, Singapore",1.3281086,103.9234498
"SENGKANG, RIVERVALE CRES, block 180D, Singapore",1.3893974,103.9104325
"HOUGANG, HOUGANG AVE 7, block 326, Singapore",1.3680912,103.8985361
"BUKIT BATOK, BT BATOK ST 34, block 346, Singapore",1.3624914,103.7505596
"HOUGANG, HOUGANG AVE 1, block 108, Singapore",1.3531797,103.8898003
"CLEMENTI, CLEMENTI AVE 4, block 372, Singapore",1.3198024,103.7677996
"WOODLANDS, WOODLANDS DR 50, block 889D, Singapore",1.4377778,103.7925117
"SENGKANG, FERNVALE LINK, block 470B, Singapore",1.3969867,103.8801104
"BUKIT BATOK, BT BATOK ST 31, block 374, Singapore",1.3581629,103.7507487
"TOA PAYOH, LOR 1A TOA PAYOH, block 138A, Singapore",1.3367624,103.8454865
"JURONG WEST, JURONG WEST ST 91, block 933, Singapore",1.3404726,103.6943767
"HOUGANG, HOUGANG CTRL, block 836, Singapore",1.3699289,103.8909147
"BUKIT PANJANG, LOMPANG RD, block 175, Singapore",1.3798272,103.7659775
"YISHUN, YISHUN AVE 11, block 428B, Singapore",1.4221474,103.847516
"BUKIT MERAH, JLN BT MERAH, block 107, Singapore",1.2798711,103.8247968
"PUNGGOL, SUMANG WALK, block 322C, Singapore",1.4105095,103.8969609
"SENGKANG, RIVERVALE DR, block 122D, Singapore",1.3872873,103.9057688
"WOODLANDS, WOODLANDS DR 75, block 687B, Singapore",1.4419076,103.8072266
"TOA PAYOH, KIM KEAT AVE, block 195, Singapore",1.3305227,103.8588952
"BUKIT PANJANG, SENJA RD, block 618, Singapore",1.3853933,103.761289
"BISHAN, BISHAN ST 23, block 207, Singapore",1.3546489,103.8481864
"BUKIT BATOK, BT BATOK WEST AVE 5, block 385, Singapore",1.363456,103.7521813
"BISHAN, SHUNFU RD, block 302, Singapore",1.3495765,103.8391749
"PUNGGOL, PUNGGOL FIELD, block 199B, Singapore",1.3999696,103.9056969
"WOODLANDS, WOODLANDS CRES, block 787B, Singapore",1.4442589,103.800933
"KALLANG/WHAMPOA, JLN BAHAGIA, block 32, Singapore",1.3261918,103.8581235
"PUNGGOL, PUNGGOL WAY, block 265B, Singapore",1.4051873,103.8986968
"TAMPINES, TAMPINES ST 91, block 930, Singapore",1.3459562,103.9396053
"CHOA CHU KANG, CHOA CHU KANG AVE 5, block 488A, Singapore",1.3770762,103.7388948
"BEDOK, BEDOK RESERVOIR RD, block 718, Singapore",1.3370748,103.9255934
"WOODLANDS, WOODLANDS DR 14, block 536, Singapore",1.4314819,103.7917868
"BUKIT PANJANG, BT PANJANG RING RD, block 545, Singapore",1.381853,103.76346
"TOA PAYOH, LOR 3 TOA PAYOH, block 96, Singapore",1.3386378,103.848319
"CHOA CHU KANG, TECK WHYE LANE, block 106, Singapore",1.3779907,103.7529237
"PUNGGOL, PUNGGOL WALK, block 213A, Singapore",1.4004011,103.8981694
"SENGKANG, SENGKANG EAST WAY, block 324A, Singapore",1.393476,103.892043
"YISHUN, YISHUN ST 72, block 749, Singapore",1.4283808,103.8340921
"SENGKANG, RIVERVALE DR, block 188A, Singapore",1.3943068,103.9050751
"SENGKANG, COMPASSVALE WALK, block 226A, Singapore",1.3879476,103.8999265
"PUNGGOL, PUNGGOL DR, block 679C, Singapore",1.4065043,103.9087025
"PUNGGOL, PUNGGOL CTRL, block 602B, Singapore",1.4030254,103.9068727
"CHOA CHU KANG, CHOA CHU KANG CRES, block 688C, Singapore",1.40324,103.7510151
"BEDOK, BEDOK NTH RD, block 107, Singapore",1.3323835,103.9362872
"SENGKANG, ANCHORVALE ST, block 329B, Singapore",1.3958198,103.8893423
"PUNGGOL, EDGEFIELD PLAINS, block 178, Singapore",1.3993596,103.908951
"ANG MO KIO, ANG MO KIO ST 21, block 260B, Singapore",1.3690578,103.8338895
"BISHAN, BISHAN ST 12, block 121, Singapore",1.3472595,103.8510949
"ANG MO KIO, ANG MO KIO ST 44, block 455B, Singapore",1.3682349,103.8584708
"HOUGANG, HOUGANG AVE 3, block 2, Singapore",1.363256,103.8931651
"BEDOK, BEDOK NTH ST 3, block 503, Singapore",1.3256355,103.9295201
"CHOA CHU KANG, CHOA CHU KANG ST 52, block 566, Singapore",1.3947138,103.7458283
"PASIR RIS, PASIR RIS ST 51, block 528A, Singapore",1.3702673,103.9478
"TAMPINES, TAMPINES ST 43, block 436, Singapore",1.3596205,103.9515928
"SENGKANG, COMPASSVALE RD, block 259A, Singapore",1.3940118,103.8968527
"TAMPINES, TAMPINES ST 21, block 233, Singapore",1.3563848,103.9474447
"HOUGANG, HOUGANG AVE 3, block 24, Singapore",1.365526,103.8919475
"BUKIT PANJANG, SENJA RD, block 604, Singapore",1.3810261,103.7623982
"TAMPINES, TAMPINES ST 21, block 205, Singapore",1.3517565,103.9519678
"BUKIT MERAH, JLN MEMBINA, block 26C, Singapore",1.2829935,103.8252565
"PUNGGOL, SUMANG WALK, block 256C, Singapore",1.4056158,103.8961249
"QUEENSTOWN, GHIM MOH RD, block 1, Singapore",1.312946,103.7868692
"KALLANG/WHAMPOA, JLN TENTERAM, block 116B, Singapore",1.3278582,103.8608789
"GEYLANG, GEYLANG EAST AVE 1, block 124, Singapore",1.3183523,103.8866965
"YISHUN, YISHUN ST 72, block 736, Singapore",1.4286023,103.8316237
"KALLANG/WHAMPOA, JLN BAHAGIA, block 42, Singapore",1.3245132,103.8572252
"WOODLANDS, WOODLANDS ST 13, block 161, Singapore",1.4333283,103.7736719
"BUKIT MERAH, TELOK BLANGAH DR, block 53, Singapore",1.2742909,103.8113681
"SENGKANG, RIVERVALE DR, block 187B, Singapore",1.3943592,103.9058972
"HOUGANG, BUANGKOK CRES, block 985A, Singapore",1.3812274,103.8801538
"BEDOK, JLN TENAGA, block 660, Singapore",1.3344038,103.9065133
"ANG MO KIO, ANG MO KIO AVE 5, block 642, Singapore",1.3779645,103.8404042
"TAMPINES, TAMPINES ST 86, block 870A, Singapore",1.3559896,103.9319522
"BUKIT PANJANG, CASHEW RD, block 133, Singapore",1.3747591,103.7703292
"MARINE PARADE, MARINE DR, block 63, Singapore",1.3023881,103.9092324
"BUKIT MERAH, TELOK BLANGAH RISE, block 35, Singapore",1.2730336,103.8221303
"CLEMENTI, CLEMENTI WEST ST 2, block 713, Singapore",1.3040621,103.762272
"BUKIT MERAH, BT PURMEI RD, block 114, Singapore",1.2751406,103.8258706
"YISHUN, YISHUN RING RD, block 354, Singapore",1.4258055,103.8452534
"TOA PAYOH, LOR 5 TOA PAYOH, block 36, Singapore",1.3343196,103.8551877
"YISHUN, YISHUN RING RD, block 236, Singapore",1.4337945,103.8390049
"JURONG WEST, JURONG WEST ST 61, block 650B, Singapore",1.3384558,103.6961584
"BUKIT BATOK, BT BATOK WEST AVE 6, block 194B, Singapore",1.3451505,103.7446337
"JURONG EAST, JURONG EAST ST 31, block 328, Singapore",1.3494301,103.7299814
"PUNGGOL, EDGEFIELD PLAINS, block 103C, Singapore",1.3973832,103.9045329
"BUKIT BATOK, BT BATOK ST 52, block 514, Singapore",1.3544931,103.7525512
"PUNGGOL, PUNGGOL FIELD, block 175A, Singapore",1.3986354,103.9079174
"BEDOK, BEDOK NTH RD, block 81, Singapore",1.3288806,103.9404575
"WOODLANDS, WOODLANDS AVE 9, block 876, Singapore",1.4447183,103.7905225
"JURONG WEST, JURONG WEST ST 41, block 473, Singapore",1.3487221,103.7228641
"BUKIT BATOK, BT BATOK ST 24, block 290F, Singapore",1.343376,103.7576586
"BEDOK, BEDOK NTH ST 3, block 545, Singapore",1.3256355,103.9295201
"BUKIT PANJANG, SENJA RD, block 608, Singapore",1.3827624,103.7612349
"JURONG WEST, JURONG WEST ST 25, block 275B, Singapore",1.352699,103.7025402
"BEDOK, CHAI CHEE AVE, block 29A, Singapore",1.3248058,103.9238701
"JURONG WEST, JURONG WEST AVE 1, block 425, Singapore",1.3511481,103.7244415
"SENGKANG, COMPASSVALE CRES, block 288C, Singapore",1.3983739,103.8981672
"SENGKANG, ANCHORVALE LINK, block 316C, Singapore",1.3930248,103.8883396
"KALLANG/WHAMPOA, UPP BOON KENG RD, block 2D, Singapore",1.3245132,103.8572252
"WOODLANDS, WOODLANDS ST 41, block 402, Singapore",1.4310628,103.7722743
"CLEMENTI, CLEMENTI AVE 2, block 335, Singapore",1.3169539,103.7686942
"ANG MO KIO, ANG MO KIO AVE 1, block 225, Singapore",1.3674323,103.8381104
"JURONG WEST, JURONG WEST ST 61, block 655A, Singapore",1.3355536,103.6984956
"BEDOK, BEDOK NTH ST 3, block 554, Singapore",1.3256355,103.9295201
"ANG MO KIO, ANG MO KIO AVE 5, block 523, Singapore",1.3729724,103.8528125
"KALLANG/WHAMPOA, JLN BAHAGIA, block 44, Singapore",1.3245132,103.8572252
"CHOA CHU KANG, CHOA CHU KANG AVE 4, block 430, Singapore",1.3838159,103.7410896
"JURONG WEST, BOON LAY DR, block 181A, Singapore",1.3486322,103.7077762
"ANG MO KIO, ANG MO KIO AVE 5, block 606, Singapore",1.3793931,103.8365973
"BUKIT MERAH, TELOK BLANGAH CRES, block 24, Singapore",1.2754308,103.8206686
"TAMPINES, SIMEI ST 1, block 137, Singapore",1.3476344,103.9563283
"JURONG WEST, CORPORATION DR, block 368, Singapore",1.3374498,103.7195594
"HOUGANG, HOUGANG AVE 9, block 962, Singapore",1.3777002,103.878304
"SENGKANG, RIVERVALE CRES, block 154, Singapore",1.3912088,103.9068007
"BUKIT MERAH, JLN BT MERAH, block 108, Singapore",1.2791735,103.8256468
"YISHUN, YISHUN ST 31, block 335B, Singapore",1.4328382,103.8441809
"BEDOK, BEDOK RESERVOIR CRES, block 748C, Singapore",1.3361274,103.9214414
"BUKIT MERAH, LENGKOK BAHRU, block 48, Singapore",1.287226,103.8109099
"ANG MO KIO, ANG MO KIO AVE 3, block 428, Singapore",1.3689743,103.85436
"HOUGANG, BUANGKOK LINK, block 992A, Singapore",1.3834371,103.8818876
"TAMPINES, TAMPINES ST 12, block 158, Singapore",1.3514619,103.9458964
"WOODLANDS, WOODLANDS CRES, block 782C, Singapore",1.4477408,103.8032795
"ANG MO KIO, ANG MO KIO AVE 4, block 170, Singapore",1.3740017,103.8367065
"QUEENSTOWN, GHIM MOH LINK, block 22, Singapore",1.3093383,103.785637
"ANG MO KIO, ANG MO KIO AVE 5, block 151, Singapore",1.3766866,103.8411448
"JURONG WEST, JURONG WEST ST 65, block 658D, Singapore",1.3372307,103.7007565
"PASIR RIS, PASIR RIS ST 72, block 716, Singapore",1.3831109,103.9367549
"KALLANG/WHAMPOA, MCNAIR RD, block 113B, Singapore",1.3209224,103.860441
"YISHUN, YISHUN ST 21, block 210, Singapore",1.4314139,103.8386554
"SENGKANG, RIVERVALE CRES, block 164B, Singapore",1.389356,103.9075046
"WOODLANDS, WOODLANDS CIRCLE, block 730, Singapore",1.4425161,103.7978542
"YISHUN, YISHUN AVE 11, block 438, Singapore",1.4217454,103.8462174
"CHOA CHU KANG, CHOA CHU KANG NTH 6, block 788, Singapore",1.3957823,103.7483533
"KALLANG/WHAMPOA, JLN RAJAH, block 103, Singapore",1.3274196,103.8528456
"YISHUN, YISHUN ST 72, block 762, Singapore",1.4257068,103.8342609
"PUNGGOL, PUNGGOL WAY, block 316A, Singapore",1.4089432,103.8983493
"BUKIT PANJANG, BT PANJANG RING RD, block 449, Singapore",1.3840758,103.7727979
"HOUGANG, HOUGANG AVE 9, block 924, Singapore",1.3763381,103.8820584
"YISHUN, YISHUN ST 21, block 228, Singapore",1.4354013,103.8375404
"QUEENSTOWN, GHIM MOH LINK, block 30, Singapore",1.3088195,103.7838589
"SENGKANG, SENGKANG EAST RD, block 202C, Singapore",1.3876826,103.8928225
"JURONG EAST, JURONG EAST ST 21, block 201, Singapore",1.336416,103.7430787
"BUKIT PANJANG, JELAPANG RD, block 516, Singapore",1.3872616,103.7672845
"PUNGGOL, PUNGGOL WALK, block 310C, Singapore",1.4096731,103.8999638
"BUKIT PANJANG, JELAPANG RD, block 511, Singapore",1.3877888,103.768478
"SENGKANG, ANCHORVALE LINK, block 303A, Singapore",1.3870774,103.890966
"BUKIT TIMAH, TOH YI DR, block 4, Singapore",1.3385518,103.7745507
"TOA PAYOH, LOR 1 TOA PAYOH, block 168, Singapore",1.3319248,103.8434952
"PUNGGOL, PUNGGOL WALK, block 213B, Singapore",1.400856,103.8983297
"TAMPINES, TAMPINES ST 43, block 439, Singapore",1.3604119,103.9510898
"PASIR RIS, PASIR RIS ST 21, block 213, Singapore",1.3683773,103.9617772
"BEDOK, NEW UPP CHANGI RD, block 64, Singapore",1.3242566,103.9398402
"SENGKANG, FERNVALE RD, block 408B, Singapore",1.3891674,103.8761083
"GEYLANG, GEYLANG EAST AVE 1, block 126, Singapore",1.3177819,103.8870475
"WOODLANDS, WOODLANDS DR 16, block 537, Singapore",1.4298021,103.7926803
"SENGKANG, RIVERVALE WALK, block 114, Singapore",1.3841899,103.9010949
"BUKIT PANJANG, JELAPANG RD, block 519, Singapore",1.3879762,103.7661053
"HOUGANG, HOUGANG AVE 3, block 17, Singapore",1.3634189,103.8909757
"TAMPINES, TAMPINES AVE 8, block 878A, Singapore",1.3521463,103.9316415
"JURONG WEST, JURONG WEST ST 64, block 668A, Singapore",1.3420009,103.7028421
"BUKIT TIMAH, QUEEN'S RD, block 1, Singapore",1.3173411,103.8067765
"BEDOK, BEDOK NTH AVE 2, block 413, Singapore",1.3284319,103.9349085
"SENGKANG, SENGKANG WEST WAY, block 469C, Singapore",1.3965027,103.87745
"JURONG WEST, JURONG WEST ST 64, block 668B, Singapore",1.3421077,103.7033411
"BUKIT BATOK, BT BATOK ST 21, block 206, Singapore",1.3466834,103.7493852
"TAMPINES, TAMPINES ST 34, block 370, Singapore",1.3579695,103.9596373
"TOA PAYOH, LOR 1 TOA PAYOH, block 130A, Singapore",1.3374723,103.8431909
"CHOA CHU KANG, CHOA CHU KANG AVE 5, block 476C, Singapore",1.3773059,103.7378918
"TAMPINES, TAMPINES AVE 5, block 146, Singapore",1.3481268,103.9424414
"YISHUN, YISHUN RING RD, block 677B, Singapore",1.4220307,103.8427565
"PUNGGOL, PUNGGOL DR, block 637C, Singapore",1.3992521,103.9151783
"SEMBAWANG, MONTREAL DR, block 589A, Singapore",1.4497932,103.825891
"JURONG WEST, JURONG WEST ST 64, block 684A, Singapore",1.3440618,103.7039881
"ANG MO KIO, ANG MO KIO AVE 3, block 120, Singapore",1.3700627,103.8445914
"WOODLANDS, WOODLANDS ST 13, block 177, Singapore",1.4343553,103.7780578
"SERANGOON, SERANGOON AVE 3, block 231, Singapore",1.3549773,103.8683334
"BUKIT BATOK, BT BATOK CTRL, block 227, Singapore",1.3484276,103.7534374
"WOODLANDS, WOODLANDS ST 82, block 882, Singapore",1.4442146,103.7909153
"CENTRAL AREA, KLANG LANE, block 672B, Singapore",1.3089683,103.8529137
"SEMBAWANG, CANBERRA RD, block 300, Singapore",1.4459259,103.8229148
"CHOA CHU KANG, CHOA CHU KANG AVE 5, block 484, Singapore",1.3765701,103.7366449
"JURONG WEST, JURONG WEST ST 42, block 406, Singapore",1.3543437,103.7223712
"BEDOK, BEDOK NTH AVE 4, block 97, Singapore",1.3284309,103.9349087
"TAMPINES, TAMPINES ST 71, block 712, Singapore",1.3590288,103.9371611
"BUKIT MERAH, TELOK BLANGAH DR, block 76, Singapore",1.2744038,103.8088114
"JURONG EAST, JURONG EAST ST 21, block 210, Singapore",1.3388346,103.7387311
"BUKIT TIMAH, TOH YI DR, block 8, Singapore",1.3380071,103.7739372
"WOODLANDS, WOODLANDS DR 40, block 706, Singapore",1.4398703,103.7967505
"BEDOK, BEDOK RESERVOIR RD, block 125, Singapore",1.3330257,103.9100332
"HOUGANG, HOUGANG ST 22, block 242, Singapore",1.357405,103.892107
"KALLANG/WHAMPOA, MCNAIR RD, block 113D, Singapore",1.3203006,103.8598666
"HOUGANG, HOUGANG ST 51, block 558, Singapore",1.38051,103.8897626
"YISHUN, YISHUN AVE 5, block 707, Singapore",1.42895,103.827538
"SENGKANG, COMPASSVALE DR, block 227A, Singapore",1.3872004,103.9006574
"PUNGGOL, PUNGGOL DR, block 613B, Singapore",1.4042056,103.9083059
"BUKIT MERAH, BT MERAH CTRL, block 115, Singapore",1.2840363,103.8144812
"KALLANG/WHAMPOA, LOR LIMAU, block 77, Singapore",1.325159,103.8548165
"BUKIT BATOK, BT BATOK WEST AVE 8, block 440A, Singapore",1.3552034,103.7386977
"BUKIT BATOK, BT BATOK WEST AVE 8, block 461A, Singapore",1.3549456,103.7399565
"TAMPINES, TAMPINES ST 22, block 299A, Singapore",1.3502087,103.9539287
"BEDOK, BEDOK STH RD, block 71, Singapore",1.3203977,103.9425686
"KALLANG/WHAMPOA, ST. GEORGE'S RD, block 20, Singapore",1.3242911,103.8634975
"TAMPINES, TAMPINES ST 41, block 423, Singapore",1.3571596,103.9479813
"WOODLANDS, WOODLANDS ST 81, block 826, Singapore",1.439313,103.7895275
"WOODLANDS, WOODLANDS CIRCLE, block 734, Singapore",1.4439542,103.7979574
"TOA PAYOH, LOR 4 TOA PAYOH, block 95, Singapore",1.3388478,103.8490256
"CHOA CHU KANG, CHOA CHU KANG AVE 7, block 815B, Singapore",1.3768366,103.747108
"HOUGANG, HOUGANG AVE 2, block 706, Singapore",1.3659523,103.8886725
"SERANGOON, SERANGOON CTRL, block 419, Singapore",1.3495058,103.875735
"TAMPINES, TAMPINES ST 32, block 310, Singapore",1.353538,103.9569788
"YISHUN, YISHUN AVE 9, block 316B, Singapore",1.4329173,103.8425488
"JURONG EAST, JURONG EAST ST 24, block 247, Singapore",1.3418856,103.7392328
"BUKIT BATOK, BT BATOK ST 22, block 299, Singapore",1.3442842,103.747163
"CHOA CHU KANG, CHOA CHU KANG AVE 3, block 405, Singapore",1.3801522,103.7394839
"SERANGOON, SERANGOON AVE 4, block 221, Singapore",1.3591312,103.8718704
"CHOA CHU KANG, CHOA CHU KANG CRES, block 680, Singapore",1.4033577,103.7452539
"MARINE PARADE, MARINE DR, block 75, Singapore",1.3033037,103.9074434
"WOODLANDS, WOODLANDS ST 13, block 185B, Singapore",1.435905,103.7762258
"TAMPINES, TAMPINES ST 22, block 288, Singapore",1.3486911,103.954369
"JURONG EAST, JURONG EAST ST 21, block 219A, Singapore",1.3406215,103.7374611
"BUKIT PANJANG, CASHEW RD, block 132, Singapore",1.3742823,103.7706874
"PASIR RIS, PASIR RIS DR 1, block 638, Singapore",1.3762891,103.940948
"SENGKANG, SENGKANG WEST WAY, block 448A, Singapore",1.3931595,103.8731109
"HOUGANG, BUANGKOK CRES, block 981D, Singapore",1.3804838,103.8792407
"PUNGGOL, PUNGGOL DR, block 666A, Singapore",1.4014295,103.9150415
"JURONG WEST, JURONG WEST ST 73, block 748, Singapore",1.3477776,103.6981061
"ANG MO KIO, ANG MO KIO AVE 10, block 561, Singapore",1.370589,103.8577539
"HOUGANG, HOUGANG AVE 6, block 531, Singapore",1.3757036,103.8902371
"JURONG WEST, JURONG WEST ST 64, block 676B, Singapore",1.3460299,103.7041757
"HOUGANG, HOUGANG ST 91, block 971, Singapore",1.3784507,103.8798583
"BISHAN, SIN MING AVE, block 455, Singapore",1.3587625,103.8307277
"BUKIT BATOK, BT BATOK ST 22, block 296A, Singapore",1.3440403,103.746688
"HOUGANG, HOUGANG AVE 8, block 542, Singapore",1.3772298,103.8920138
"TAMPINES, TAMPINES ST 42, block 448, Singapore",1.3574349,103.9509729
"BUKIT BATOK, BT BATOK ST 25, block 289G, Singapore",1.3450115,103.7589247
"JURONG WEST, JURONG WEST ST 73, block 734, Singapore",1.3454576,103.7003487
"BUKIT BATOK, BT BATOK EAST AVE 5, block 248, Singapore",1.3503117,103.7564703
"SENGKANG, ANCHORVALE CRES, block 336B, Singapore",1.3975709,103.8891021
"PUNGGOL, EDGEDALE PLAINS, block 109A, Singapore",1.3945908,103.9100117
"WOODLANDS, WOODLANDS DR 50, block 898B, Singapore",1.4353369,103.7953426
"BUKIT PANJANG, FAJAR RD, block 451, Singapore",1.3851126,103.772066
"TOA PAYOH, LOR 5 TOA PAYOH, block 72, Singapore",1.3338954,103.8520748
"HOUGANG, BUANGKOK CRES, block 996B, Singapore",1.3860009,103.8818238
"TOA PAYOH, LOR 2 TOA PAYOH, block 86, Singapore",1.3354853,103.8476701
"JURONG WEST, JURONG WEST ST 64, block 675B, Singapore",1.3458642,103.7036538
"YISHUN, YISHUN AVE 11, block 426B, Singapore",1.422718,103.8464861
"SENGKANG, FERNVALE RD, block 435A, Singapore",1.3934424,103.8761325
"WOODLANDS, MARSILING LANE, block 13, Singapore",1.4412792,103.7794549
"SEMBAWANG, SEMBAWANG CRES, block 365B, Singapore",1.4439366,103.8174148
"YISHUN, YISHUN RING RD, block 116, Singapore",1.4351045,103.8282208
"SENGKANG, FERNVALE LINK, block 414A, Singapore",1.3902503,103.8800775
"BUKIT BATOK, BT BATOK EAST AVE 5, block 242, Singapore",1.3507868,103.7558783
"JURONG WEST, JURONG WEST CTRL 1, block 693, Singapore",1.3428692,103.706328
"YISHUN, YISHUN CTRL 1, block 932, Singapore",1.426375,103.836995
"SENGKANG, COMPASSVALE LANE, block 210B, Singapore",1.3845673,103.8998122
"SENGKANG, FERNVALE RD, block 453D, Singapore",1.3935287,103.8755199
"WOODLANDS, WOODLANDS CIRCLE, block 728, Singapore",1.4428218,103.7988729
"BUKIT PANJANG, PENDING RD, block 115, Singapore",1.3780645,103.7691523
"SENGKANG, FERNVALE LINK, block 414B, Singapore",1.3900314,103.8796254
"YISHUN, YISHUN RING RD, block 141, Singapore",1.430894,103.830024
"BUKIT PANJANG, JELAPANG RD, block 502, Singapore",1.383652,103.7665679
"WOODLANDS, WOODLANDS DR 50, block 899B, Singapore",1.4361616,103.795246
"SERANGOON, SERANGOON NTH AVE 1, block 109, Singapore",1.3644344,103.8723348
"SEMBAWANG, WELLINGTON CIRCLE, block 506A, Singapore",1.4519774,103.8239708
"PUNGGOL, PUNGGOL FIELD, block 269C, Singapore",1.4038233,103.89859
"WOODLANDS, WOODLANDS RING RD, block 637, Singapore",1.437374,103.8025113
"ANG MO KIO, ANG MO KIO AVE 10, block 444, Singapore",1.3666372,103.8555477
"JURONG EAST, TOH GUAN RD, block 265, Singapore",1.3406555,103.744575
"QUEENSTOWN, TANGLIN HALT RD, block 89, Singapore",1.3012161,103.7989183
"JURONG WEST, JURONG WEST CTRL 1, block 685C, Singapore",1.3425984,103.7041706
"SERANGOON, SERANGOON AVE 4, block 226, Singapore",1.3568496,103.8707977
"TOA PAYOH, LOR 8 TOA PAYOH, block 224, Singapore",1.3412045,103.8560181
"TAMPINES, TAMPINES AVE 7, block 392, Singapore",1.3552284,103.9574012
"WOODLANDS, WOODLANDS DR 50, block 886C, Singapore",1.4378232,103.794031
"PUNGGOL, PUNGGOL PL, block 274B, Singapore",1.4027154,103.9023286
"PUNGGOL, EDGEFIELD PLAINS, block 670A, Singapore",1.4054087,103.9129276
"JURONG EAST, TEBAN GDNS RD, block 65, Singapore",1.32199,103.7391789
"SEMBAWANG, ADMIRALTY LINK, block 404, Singapore",1.4537036,103.8167103
"YISHUN, YISHUN AVE 6, block 462D, Singapore",1.4279571,103.8509002
"CHOA CHU KANG, KEAT HONG LINK, block 817C, Singapore",1.3775062,103.7492713
"WOODLANDS, WOODLANDS DR 62, block 683D, Singapore",1.4381922,103.7889597
"JURONG WEST, JURONG WEST ST 71, block 704, Singapore",1.3409382,103.6951743
"JURONG EAST, PANDAN GDNS, block 410, Singapore",1.3189653,103.7474715
"SERANGOON, SERANGOON AVE 3, block 329, Singapore",1.3497133,103.8683905
"WOODLANDS, WOODLANDS CIRCLE, block 743, Singapore",1.4437262,103.7962575
"JURONG EAST, TOH GUAN RD, block 270, Singapore",1.3412399,103.7460097
"SEMBAWANG, ADMIRALTY LINK, block 401, Singapore",1.4542529,103.8156242
"PASIR RIS, PASIR RIS DR 3, block 626, Singapore",1.3798285,103.9409506
"WOODLANDS, WOODLANDS ST 11, block 168, Singapore",1.4330349,103.7766123
"BUKIT PANJANG, SENJA RD, block 634A, Singapore",1.385862,103.75782
"YISHUN, YISHUN RING RD, block 413, Singapore",1.424971,103.8465798
"BUKIT BATOK, BT BATOK ST 33, block 329, Singapore",1.3633082,103.7476011
"CHOA CHU KANG, KEAT HONG LINK, block 816B, Singapore",1.3759146,103.7485678
"QUEENSTOWN, QUEEN'S CL, block 21, Singapore",1.2933309,103.7999385
"WOODLANDS, WOODLANDS AVE 1, block 353, Singapore",1.4319501,103.7853586
"SENGKANG, ANCHORVALE ST, block 330B, Singapore",1.3965995,103.8902581
"HOUGANG, HOUGANG AVE 1, block 114, Singapore",1.3531191,103.8887911
"BEDOK, BEDOK NTH ST 1, block 419, Singapore",1.3313175,103.936479
"KALLANG/WHAMPOA, MCNAIR RD, block 111, Singapore",1.3213774,103.8582636
"TAMPINES, TAMPINES ST 72, block 718, Singapore",1.3591707,103.9355049
"BUKIT PANJANG, SENJA RD, block 626, Singapore",1.3855172,103.7597568
"ANG MO KIO, ANG MO KIO AVE 3, block 235, Singapore",1.3668464,103.836496
"ANG MO KIO, ANG MO KIO AVE 3, block 423, Singapore",1.3687212,103.8515946
"QUEENSTOWN, MEI LING ST, block 161, Singapore",1.2914703,103.8034685
"CENTRAL AREA, SELEGIE RD, block 9, Singapore",1.3034202,103.8509279
"PUNGGOL, PUNGGOL DR, block 637B, Singapore",1.3994472,103.9149133
"GEYLANG, CIRCUIT RD, block 17A, Singapore",1.3299487,103.8881314
"CENTRAL AREA, TG PAGAR PLAZA, block 5, Singapore",1.2763368,103.8429097
"PUNGGOL, EDGEFIELD PLAINS, block 673B, Singapore",1.4069688,103.911138
"PUNGGOL, SUMANG WALK, block 326C, Singapore",1.4124996,103.9001063
"WOODLANDS, WOODLANDS DR 14, block 522, Singapore",1.4335159,103.7935681
"KALLANG/WHAMPOA, GEYLANG BAHRU, block 68, Singapore",1.322333,103.8700432
"PUNGGOL, PUNGGOL WAY, block 315B, Singapore",1.4082731,103.8966654
"JURONG EAST, JURONG EAST ST 31, block 351, Singapore",1.3448615,103.7307969
"BEDOK, BEDOK NTH RD, block 119, Singapore",1.3301772,103.938641
"WOODLANDS, WOODLANDS ST 41, block 429, Singapore",1.4266101,103.7726899
"SEMBAWANG, SEMBAWANG CL, block 319, Singapore",1.4459989,103.8195145
"SENGKANG, FERNVALE RD, block 441D, Singapore",1.3921399,103.8752705
"YISHUN, YISHUN AVE 1, block 431D, Singapore",1.419779,103.8468419
"YISHUN, YISHUN AVE 4, block 658, Singapore",1.4219356,103.8394402
"SENGKANG, COMPASSVALE DR, block 204A, Singapore",1.3882567,103.8946716
"TAMPINES, TAMPINES ST 41, block 430, Singapore",1.3597819,103.9502476
"TAMPINES, TAMPINES ST 21, block 262, Singapore",1.353841,103.9508762
"BUKIT MERAH, REDHILL RD, block 77A, Singapore",1.288475,103.817419
"PASIR RIS, PASIR RIS ST 13, block 148, Singapore",1.3620836,103.962021
"SENGKANG, ANCHORVALE CRES, block 338C, Singapore",1.399829,103.8899993
"JURONG EAST, TEBAN GDNS RD, block 33, Singapore",1.320306,103.7420627
"ANG MO KIO, ANG MO KIO AVE 8, block 505, Singapore",1.3748745,103.8502032
"JURONG WEST, JURONG WEST ST 93, block 989A, Singapore",1.3359886,103.6945695
"PASIR RIS, PASIR RIS ST 21, block 238, Singapore",1.3737805,103.9632081
"BEDOK, BEDOK CTRL, block 221A, Singapore",1.3248975,103.9333872
"ANG MO KIO, ANG MO KIO AVE 6, block 714, Singapore",1.371088,103.8462175
"ANG MO KIO, ANG MO KIO AVE 10, block 550, Singapore",1.373631,103.8581986
"HOUGANG, HOUGANG ST 91, block 926, Singapore",1.3760696,103.880919
"JURONG EAST, JURONG EAST ST 21, block 288A, Singapore",1.3388194,103.7433245
"BUKIT PANJANG, BANGKIT RD, block 275, Singapore",1.3768453,103.7747831
"PASIR RIS, PASIR RIS ST 53, block 583, Singapore",1.3757547,103.94705
"GEYLANG, CIRCUIT RD, block 47, Singapore",1.325826,103.8856918
"CLEMENTI, CLEMENTI AVE 3, block 430, Singapore",1.3133084,103.7625769
"BUKIT PANJANG, SEGAR RD, block 468, Singapore",1.3875513,103.7733038
"TOA PAYOH, LOR 6 TOA PAYOH, block 51, Singapore",1.3378054,103.8522623
"TOA PAYOH, UPP ALJUNIED LANE, block 7, Singapore",1.3347841,103.8787009
"SERANGOON, SERANGOON AVE 3, block 233, Singapore",1.355168,103.8688596
"HOUGANG, HOUGANG AVE 5, block 312, Singapore",1.3655224,103.8942311
"JURONG EAST, JURONG EAST ST 24, block 261, Singapore",1.3443871,103.7404604
"ANG MO KIO, ANG MO KIO AVE 10, block 465, Singapore",1.3662437,103.8570767
"YISHUN, YISHUN RING RD, block 326, Singapore",1.429692,103.842413
"JURONG WEST, JURONG WEST ST 61, block 646, Singapore",1.3395056,103.6970516
"QUEENSTOWN, DOVER CRES, block 18, Singapore",1.3081155,103.7832761
"PUNGGOL, SUMANG WALK, block 217A, Singapore",1.4029689,103.895051
"KALLANG/WHAMPOA, ST. GEORGE'S RD, block 13, Singapore",1.3233202,103.8626847
"ANG MO KIO, ANG MO KIO AVE 1, block 331, Singapore",1.3620144,103.8508674
"BUKIT BATOK, BT BATOK WEST AVE 6, block 147, Singapore",1.3495501,103.7436071
"JURONG WEST, JURONG WEST ST 42, block 405, Singapore",1.3543192,103.7213771
"BISHAN, BISHAN ST 12, block 130, Singapore",1.3459111,103.8510162
"BUKIT BATOK, BT BATOK ST 32, block 316, Singapore",1.3605906,103.7472167
"BEDOK, BEDOK NTH ST 4, block 86, Singapore",1.3257849,103.9294412
"TAMPINES, TAMPINES ST 11, block 109, Singapore",1.3473591,103.9486624
"JURONG EAST, JURONG EAST ST 21, block 231, Singapore",1.3411463,103.7381036
"PUNGGOL, SUMANG LINK, block 313C, Singapore",1.4106609,103.9017569
"PASIR RIS, PASIR RIS ST 51, block 548, Singapore",1.3683892,103.9535515
"TAMPINES, TAMPINES AVE 9, block 601B, Singapore",1.3607371,103.9373128
"SENGKANG, ANCHORVALE ST, block 331B, Singapore",1.3961565,103.8903055
"BUKIT PANJANG, GANGSA RD, block 155, Singapore",1.3753259,103.7651215
"BUKIT BATOK, BT BATOK WEST AVE 8, block 168, Singapore",1.3471886,103.7413037
"BUKIT PANJANG, JELAPANG RD, block 507, Singapore",1.3866123,103.7679145
"WOODLANDS, WOODLANDS ST 81, block 809, Singapore",1.4430862,103.7881303
"SEMBAWANG, SEMBAWANG CL, block 340B, Singapore",1.4471996,103.81844
"PUNGGOL, PUNGGOL RD, block 305B, Singapore",1.4052907,103.9063732
"CHOA CHU KANG, CHOA CHU KANG CRES, block 656, Singapore",1.4003053,103.7503295
"BISHAN, BISHAN ST 24, block 273A, Singapore",1.3563043,103.8439529
"BUKIT TIMAH, FARRER RD, block 6, Singapore",1.3173316,103.808029
"YISHUN, YISHUN ST 61, block 641, Singapore",1.4207918,103.8381661
"BUKIT MERAH, MOH GUAN TER, block 44, Singapore",1.2844287,103.8310617
"JURONG WEST, JURONG WEST ST 52, block 533, Singapore",1.3488982,103.7164865
"PUNGGOL, PUNGGOL DR, block 664A, Singapore",1.3995659,103.9174944
"SEMBAWANG, ADMIRALTY DR, block 360C, Singapore",1.4484645,103.8149492
"JURONG WEST, JURONG WEST ST 65, block 671C, Singapore",1.3440105,103.7014469
"HOUGANG, HOUGANG AVE 8, block 684, Singapore",1.3742687,103.8866118
"BEDOK, BEDOK NTH AVE 4, block 103, Singapore",1.3284309,103.9349087
"BUKIT MERAH, JLN BT HO SWEE, block 10, Singapore",1.2874609,103.8324209
"TAMPINES, TAMPINES ST 42, block 458, Singapore",1.3579703,103.9544862
"CHOA CHU KANG, CHOA CHU KANG AVE 2, block 287, Singapore",1.3797622,103.7424022
"JURONG WEST, JURONG WEST ST 65, block 667B, Singapore",1.3410314,103.7015888
"CHOA CHU KANG, CHOA CHU KANG AVE 4, block 425, Singapore",1.3812297,103.7394593
"JURONG EAST, JURONG EAST ST 32, block 316, Singapore",1.3470884,103.7319281
"SENGKANG, ANCHORVALE LINK, block 316B, Singapore",1.3931362,103.8887492
"SENGKANG, COMPASSVALE BOW, block 265D, Singapore",1.3822194,103.8964817
"CHOA CHU KANG, CHOA CHU KANG AVE 5, block 485B, Singapore",1.3742541,103.7387954
"WOODLANDS, MARSILING DR, block 31, Singapore",1.4430217,103.7722557
"YISHUN, YISHUN AVE 11, block 348D, Singapore",1.4269546,103.8427955
"SENGKANG, ANCHORVALE LINK, block 333C, Singapore",1.3945076,103.8917697
"JURONG WEST, JURONG WEST ST 52, block 525, Singapore",1.3473316,103.7163347
"TOA PAYOH, LOR 2 TOA PAYOH, block 101A, Singapore",1.3398284,103.8471283
"ANG MO KIO, ANG MO KIO AVE 5, block 181, Singapore",1.3768227,103.837143
"BUKIT MERAH, TELOK BLANGAH CRES, block 20, Singapore",1.2770337,103.8218274
"BEDOK, BEDOK RESERVOIR RD, block 709, Singapore",1.3354482,103.9224491
"TOA PAYOH, TOA PAYOH CTRL, block 79B, Singapore",1.335002,103.8479364
"QUEENSTOWN, STIRLING RD, block 169, Singapore",1.2904733,103.8030258
"SENGKANG, RIVERVALE DR, block 119D, Singapore",1.3855225,103.9033701
"PUNGGOL, PUNGGOL WAY, block 265C, Singapore",1.4049981,103.8986475
"JURONG EAST, JURONG EAST ST 32, block 312, Singapore",1.3469354,103.7320407
"WOODLANDS, WOODLANDS DR 60, block 773, Singapore",1.4474178,103.7976052
"BISHAN, BRIGHT HILL DR, block 446, Singapore",1.3578235,103.8323101
"BEDOK, JLN DAMAI, block 669, Singapore",1.3332982,103.9083605
"CHOA CHU KANG, CHOA CHU KANG ST 62, block 604, Singapore",1.398144,103.7447333
"HOUGANG, HOUGANG AVE 1, block 173, Singapore",1.3502665,103.8888207
"TAMPINES, TAMPINES ST 81, block 897A, Singapore",1.3474212,103.9356302
"SENGKANG, ANCHORVALE CRES, block 335C, Singapore",1.3986146,103.8881795
"QUEENSTOWN, GHIM MOH LINK, block 28, Singapore",1.3089015,103.7849185
"JURONG EAST, TEBAN GDNS RD, block 40, Singapore",1.3213542,103.7420454
"JURONG WEST, JURONG WEST AVE 1, block 540, Singapore",1.3505691,103.7153665
"SENGKANG, COMPASSVALE DR, block 217C, Singapore",1.3898642,103.8939091
"PUNGGOL, PUNGGOL DR, block 667A, Singapore",1.4025791,103.9140139
"BUKIT PANJANG, PETIR RD, block 217, Singapore",1.3747571,103.7737922
"JURONG EAST, JURONG EAST ST 31, block 327, Singapore",1.3491517,103.7290258
"HOUGANG, HOUGANG AVE 8, block 657, Singapore",1.373889,103.8818957
"YISHUN, YISHUN ST 51, block 512A, Singapore",1.4142502,103.841316
"JURONG WEST, BOON LAY PL, block 210, Singapore",1.3479039,103.7130169
"YISHUN, YISHUN ST 81, block 840, Singapore",1.4155411,103.833589
"CHOA CHU KANG, CHOA CHU KANG AVE 5, block 488B, Singapore",1.3770635,103.7393509
"ANG MO KIO, ANG MO KIO AVE 10, block 405, Singapore",1.3617045,103.8536003
"SENGKANG, RIVERVALE DR, block 196, Singapore",1.3927682,103.9032284
"HOUGANG, HOUGANG AVE 2, block 707, Singapore",1.3663191,103.8887669
"BUKIT BATOK, BT BATOK ST 31, block 377, Singapore",1.3594584,103.7502829
"TAMPINES, TAMPINES ST 45, block 498J, Singapore",1.3632259,103.9568992
"SENGKANG, SENGKANG EAST WAY, block 323A, Singapore",1.3932718,103.8925591
"YISHUN, YISHUN ST 22, block 275, Singapore",1.437751,103.838555
"BUKIT BATOK, BT BATOK WEST AVE 8, block 440D, Singapore",1.3552393,103.7371982
"PUNGGOL, PUNGGOL DR, block 617D, Singapore",1.401639,103.9128802
"YISHUN, YISHUN ST 31, block 333D, Singapore",1.4319292,103.8461487
"WOODLANDS, MARSILING RD, block 139, Singapore",1.4377164,103.7773135
"TAMPINES, TAMPINES CTRL 7, block 524A, Singapore",1.3584328,103.9390823
"JURONG EAST, JURONG EAST ST 21, block 234, Singapore",1.3398156,103.7418514
"SERANGOON, SERANGOON NTH AVE 3, block 545, Singapore",1.3646741,103.8722429
"JURONG WEST, JURONG WEST ST 91, block 944, Singapore",1.3448055,103.6903676
"WOODLANDS, WOODLANDS ST 83, block 855, Singapore",1.440104,103.7930763
"BUKIT BATOK, BT BATOK EAST AVE 3, block 229, Singapore",1.3482271,103.7546311
"ANG MO KIO, ANG MO KIO AVE 10, block 539, Singapore",1.3754005,103.8543036
"TOA PAYOH, LOR 2 TOA PAYOH, block 83, Singapore",1.3357874,103.84802
